{"type": "FeatureCollection", "features": [{"id": "1", "type": "Feature", "properties": {"LAT": 63.210689, "LON": -143.247156, "PLNGENAN": "", "PNAME": "7-Mile Ridge Wind Project", "PSTATABB": "AK"}, "geometry": {"type": "Point", "coordinates": [-143.247156, 63.210689]}}, {"id": "2", "type": "Feature", "properties": {"LAT": 60.6732, "LON": -151.3784, "PLNGENAN": "", "PNAME": "Agrium Kenai Nitrogen Operations", "PSTATABB": "AK"}, "geometry": {"type": "Point", "coordinates": [-151.3784, 60.6732]}}, {"id": "3", "type": "Feature", "properties": {"LAT": 62.6833, "LON": -164.6544, "PLNGENAN": -14, "PNAME": "Alakanuk", "PSTATABB": "AK"}, "geometry": {"type": "Point", "coordinates": [-164.6544, 62.6833]}}, {"id": "4", "type": "Feature", "properties": {"LAT": 61.084444, "LON": -146.353333, "PLNGENAN": 19135, "PNAME": "Allison Creek Hydro", "PSTATABB": "AK"}, "geometry": {"type": "Point", "coordinates": [-146.353333, 61.084444]}}, {"id": "5", "type": "Feature", "properties": {"LAT": 67.08798, "LON": -157.856719, "PLNGENAN": 1175.999, "PNAME": "Ambler", "PSTATABB": "AK"}, "geometry": {"type": "Point", "coordinates": [-157.856719, 67.08798]}}, {"id": "6", "type": "Feature", "properties": {"LAT": 61.2221, "LON": -149.8661, "PLNGENAN": 14736.9, "PNAME": "Anchorage 1", "PSTATABB": "AK"}, "geometry": {"type": "Point", "coordinates": [-149.8661, 61.2221]}}, {"id": "7", "type": "Feature", "properties": {"LAT": 57.499166, "LON": -134.58614, "PLNGENAN": 1611.999, "PNAME": "Angoon", "PSTATABB": "AK"}, "geometry": {"type": "Point", "coordinates": [-134.58614, 57.499166]}}, {"id": "8", "type": "Feature", "properties": {"LAT": 61.580678, "LON": -159.535643, "PLNGENAN": "", "PNAME": "Aniak", "PSTATABB": "AK"}, "geometry": {"type": "Point", "coordinates": [-159.535643, 61.580678]}}, {"id": "9", "type": "Feature", "properties": {"LAT": 58.3176, "LON": -134.101, "PLNGENAN": 26761, "PNAME": "Annex Creek", "PSTATABB": "AK"}, "geometry": {"type": "Point", "coordinates": [-134.101, 58.3176]}}, {"id": "10", "type": "Feature", "properties": {"LAT": 58.3875, "LON": -134.6446, "PLNGENAN": -132, "PNAME": "Auke Bay", "PSTATABB": "AK"}, "geometry": {"type": "Point", "coordinates": [-134.6446, 58.3875]}}, {"id": "11", "type": "Feature", "properties": {"LAT": 64.847743, "LON": -147.735063, "PLNGENAN": 186691, "PNAME": "Aurora Energy LLC Chena", "PSTATABB": "AK"}, "geometry": {"type": "Point", "coordinates": [-147.735063, 64.847743]}}, {"id": "12", "type": "Feature", "properties": {"LAT": 71.292, "LON": -156.7786, "PLNGENAN": 47567, "PNAME": "Barrow", "PSTATABB": "AK"}, "geometry": {"type": "Point", "coordinates": [-156.7786, 71.292]}}, {"id": "13", "type": "Feature", "properties": {"LAT": 64.8167, "LON": -147.725, "PLNGENAN": -3280, "PNAME": "Battery Energy Storage System", "PSTATABB": "AK"}, "geometry": {"type": "Point", "coordinates": [-147.725, 64.8167]}}, {"id": "14", "type": "Feature", "properties": {"LAT": 55.37975, "LON": -131.470269, "PLNGENAN": 35139, "PNAME": "Beaver Falls", "PSTATABB": "AK"}, "geometry": {"type": "Point", "coordinates": [-131.470269, 55.37975]}}, {"id": "15", "type": "Feature", "properties": {"LAT": 61.1861, "LON": -151.0356, "PLNGENAN": 55030.999, "PNAME": "Beluga", "PSTATABB": "AK"}, "geometry": {"type": "Point", "coordinates": [-151.0356, 61.1861]}}, {"id": "16", "type": "Feature", "properties": {"LAT": 60.6935, "LON": -151.3874, "PLNGENAN": 6009, "PNAME": "Bernice Lake", "PSTATABB": "AK"}, "geometry": {"type": "Point", "coordinates": [-151.3874, 60.6935]}}, {"id": "17", "type": "Feature", "properties": {"LAT": 60.7897, "LON": -161.787778, "PLNGENAN": 42505.998, "PNAME": "Bethel", "PSTATABB": "AK"}, "geometry": {"type": "Point", "coordinates": [-161.787778, 60.7897]}}, {"id": "18", "type": "Feature", "properties": {"LAT": 55.476472, "LON": -133.14772, "PLNGENAN": 19976, "PNAME": "Black Bear Lake", "PSTATABB": "AK"}, "geometry": {"type": "Point", "coordinates": [-133.14772, 55.476472]}}, {"id": "19", "type": "Feature", "properties": {"LAT": 57.0516, "LON": -135.2297, "PLNGENAN": 59457.999, "PNAME": "Blue Lake Hydro", "PSTATABB": "AK"}, "geometry": {"type": "Point", "coordinates": [-135.2297, 57.0516]}}, {"id": "20", "type": "Feature", "properties": {"LAT": 59.77862, "LON": -150.94015, "PLNGENAN": 413592, "PNAME": "Bradley Lake", "PSTATABB": "AK"}, "geometry": {"type": "Point", "coordinates": [-150.94015, 59.77862]}}, {"id": "21", "type": "Feature", "properties": {"LAT": 65.331716, "LON": -166.479506, "PLNGENAN": 1188, "PNAME": "Brevig Mission", "PSTATABB": "AK"}, "geometry": {"type": "Point", "coordinates": [-166.479506, 65.331716]}}, {"id": "22", "type": "Feature", "properties": {"LAT": 55.121433, "LON": -131.560267, "PLNGENAN": 2464, "PNAME": "Centennial", "PSTATABB": "AK"}, "geometry": {"type": "Point", "coordinates": [-131.560267, 55.121433]}}, {"id": "23", "type": "Feature", "properties": {"LAT": 55.116879, "LON": -131.545879, "PLNGENAN": 5809, "PNAME": "Chester Lake", "PSTATABB": "AK"}, "geometry": {"type": "Point", "coordinates": [-131.545879, 55.116879]}}, {"id": "24", "type": "Feature", "properties": {"LAT": 61.525297, "LON": -165.590152, "PLNGENAN": 2395, "PNAME": "Chevak", "PSTATABB": "AK"}, "geometry": {"type": "Point", "coordinates": [-165.590152, 61.525297]}}, {"id": "25", "type": "Feature", "properties": {"LAT": 60.392331, "LON": -149.665603, "PLNGENAN": 46102, "PNAME": "Cooper Lake", "PSTATABB": "AK"}, "geometry": {"type": "Point", "coordinates": [-149.665603, 60.392331]}}, {"id": "26", "type": "Feature", "properties": {"LAT": 55.47691, "LON": -133.14869, "PLNGENAN": 460.999, "PNAME": "Craig (AK)", "PSTATABB": "AK"}, "geometry": {"type": "Point", "coordinates": [-133.14869, 55.47691]}}, {"id": "27", "type": "Feature", "properties": {"LAT": 64.028056, "LON": -145.719444, "PLNGENAN": -133, "PNAME": "Delta Power", "PSTATABB": "AK"}, "geometry": {"type": "Point", "coordinates": [-145.719444, 64.028056]}}, {"id": "28", "type": "Feature", "properties": {"LAT": 64.013889, "LON": -145.596667, "PLNGENAN": 3969.999, "PNAME": "Delta Wind Farm", "PSTATABB": "AK"}, "geometry": {"type": "Point", "coordinates": [-145.596667, 64.013889]}}, {"id": "29", "type": "Feature", "properties": {"LAT": 59.042914, "LON": -158.468597, "PLNGENAN": 18662.998, "PNAME": "Dillingham", "PSTATABB": "AK"}, "geometry": {"type": "Point", "coordinates": [-158.468597, 59.042914]}}, {"id": "30", "type": "Feature", "properties": {"LAT": 53.892459, "LON": -166.538185, "PLNGENAN": 52998, "PNAME": "Dutch Harbor", "PSTATABB": "AK"}, "geometry": {"type": "Point", "coordinates": [-166.538185, 53.892459]}}, {"id": "31", "type": "Feature", "properties": {"LAT": 64.67141, "LON": -147.075988, "PLNGENAN": 69358, "PNAME": "Eielson AFB Central Heat & Power Plant", "PSTATABB": "AK"}, "geometry": {"type": "Point", "coordinates": [-147.075988, 64.67141]}}, {"id": "32", "type": "Feature", "properties": {"LAT": 61.457778, "LON": -149.351389, "PLNGENAN": 723815, "PNAME": "Eklutna Generation Station", "PSTATABB": "AK"}, "geometry": {"type": "Point", "coordinates": [-149.351389, 61.457778]}}, {"id": "33", "type": "Feature", "properties": {"LAT": 61.475211, "LON": -149.15009, "PLNGENAN": 190971, "PNAME": "Eklutna Hydro Project", "PSTATABB": "AK"}, "geometry": {"type": "Point", "coordinates": [-149.15009, 61.475211]}}, {"id": "34", "type": "Feature", "properties": {"LAT": 64.616558, "LON": -162.263717, "PLNGENAN": 1271, "PNAME": "Elim", "PSTATABB": "AK"}, "geometry": {"type": "Point", "coordinates": [-162.263717, 64.616558]}}, {"id": "35", "type": "Feature", "properties": {"LAT": 62.777694, "LON": -164.531517, "PLNGENAN": 5838.002, "PNAME": "Emmonak", "PSTATABB": "AK"}, "geometry": {"type": "Point", "coordinates": [-164.531517, 62.777694]}}, {"id": "36", "type": "Feature", "properties": {"LAT": 57.799167, "LON": -152.404167, "PLNGENAN": -240, "PNAME": "ESS Battery Microgrid", "PSTATABB": "AK"}, "geometry": {"type": "Point", "coordinates": [-152.404167, 57.799167]}}, {"id": "37", "type": "Feature", "properties": {"LAT": 64.058333, "LON": -148.9, "PLNGENAN": 60106, "PNAME": "Eva Creek Wind", "PSTATABB": "AK"}, "geometry": {"type": "Point", "coordinates": [-148.9, 64.058333]}}, {"id": "38", "type": "Feature", "properties": {"LAT": 60.54047, "LON": -145.74079, "PLNGENAN": 0, "PNAME": "Eyak Service Center BESS", "PSTATABB": "AK"}, "geometry": {"type": "Point", "coordinates": [-145.74079, 60.54047]}}, {"id": "39", "type": "Feature", "properties": {"LAT": 64.854171, "LON": -147.719351, "PLNGENAN": 7685, "PNAME": "Fairbanks", "PSTATABB": "AK"}, "geometry": {"type": "Point", "coordinates": [-147.719351, 64.854171]}}, {"id": "40", "type": "Feature", "properties": {"LAT": 55.48918, "LON": -133.1345, "PLNGENAN": 1713, "PNAME": "False Island", "PSTATABB": "AK"}, "geometry": {"type": "Point", "coordinates": [-133.1345, 55.48918]}}, {"id": "41", "type": "Feature", "properties": {"LAT": 61.13, "LON": -150.243611, "PLNGENAN": 48221, "PNAME": "Fire Island Wind", "PSTATABB": "AK"}, "geometry": {"type": "Point", "coordinates": [-150.243611, 61.13]}}, {"id": "42", "type": "Feature", "properties": {"LAT": 57.780114, "LON": -152.443783, "PLNGENAN": -375, "PNAME": "Flywheel Energy Storage System Microgrid", "PSTATABB": "AK"}, "geometry": {"type": "Point", "coordinates": [-152.443783, 57.780114]}}, {"id": "43", "type": "Feature", "properties": {"LAT": 63.973572, "LON": -145.716581, "PLNGENAN": 65.66, "PNAME": "Fort Greely Power Plant", "PSTATABB": "AK"}, "geometry": {"type": "Point", "coordinates": [-145.716581, 63.973572]}}, {"id": "44", "type": "Feature", "properties": {"LAT": 64.74417, "LON": -156.8736, "PLNGENAN": 5886.001, "PNAME": "Galena Electric Utility", "PSTATABB": "AK"}, "geometry": {"type": "Point", "coordinates": [-156.8736, 64.74417]}}, {"id": "45", "type": "Feature", "properties": {"LAT": 63.777058, "LON": -171.712439, "PLNGENAN": 1932, "PNAME": "Gambell", "PSTATABB": "AK"}, "geometry": {"type": "Point", "coordinates": [-171.712439, 63.777058]}}, {"id": "46", "type": "Feature", "properties": {"LAT": 61.229713, "LON": -149.716744, "PLNGENAN": 626189, "PNAME": "George M Sullivan Generation Plant 2", "PSTATABB": "AK"}, "geometry": {"type": "Point", "coordinates": [-149.716744, 61.229713]}}, {"id": "47", "type": "Feature", "properties": {"LAT": 62.110415, "LON": -145.532529, "PLNGENAN": 2957.998, "PNAME": "Glennallen", "PSTATABB": "AK"}, "geometry": {"type": "Point", "coordinates": [-145.532529, 62.110415]}}, {"id": "48", "type": "Feature", "properties": {"LAT": 59.5357, "LON": -135.2123, "PLNGENAN": 15420, "PNAME": "Goat Lake Hydro", "PSTATABB": "AK"}, "geometry": {"type": "Point", "coordinates": [-135.2123, 59.5357]}}, {"id": "49", "type": "Feature", "properties": {"LAT": 58.3107, "LON": -134.4174, "PLNGENAN": 368.998, "PNAME": "Gold Creek", "PSTATABB": "AK"}, "geometry": {"type": "Point", "coordinates": [-134.4174, 58.3107]}}, {"id": "50", "type": "Feature", "properties": {"LAT": 56.986284, "LON": -135.12275, "PLNGENAN": 51134, "PNAME": "Green Lake", "PSTATABB": "AK"}, "geometry": {"type": "Point", "coordinates": [-135.12275, 56.986284]}}, {"id": "51", "type": "Feature", "properties": {"LAT": 66.566287, "LON": -145.253052, "PLNGENAN": 2091, "PNAME": "Gwitchyaa Zhee", "PSTATABB": "AK"}, "geometry": {"type": "Point", "coordinates": [-145.253052, 66.566287]}}, {"id": "52", "type": "Feature", "properties": {"LAT": 59.235931, "LON": -135.446228, "PLNGENAN": -72, "PNAME": "Haines", "PSTATABB": "AK"}, "geometry": {"type": "Point", "coordinates": [-135.446228, 59.235931]}}, {"id": "53", "type": "Feature", "properties": {"LAT": 63.8542, "LON": -148.95, "PLNGENAN": 344560, "PNAME": "Healy", "PSTATABB": "AK"}, "geometry": {"type": "Point", "coordinates": [-148.95, 63.8542]}}, {"id": "54", "type": "Feature", "properties": {"LAT": 55.216389, "LON": -132.603611, "PLNGENAN": "", "PNAME": "Hiilangaay Hydro", "PSTATABB": "AK"}, "geometry": {"type": "Point", "coordinates": [-132.603611, 55.216389]}}, {"id": "55", "type": "Feature", "properties": {"LAT": 58.106432, "LON": -135.43074, "PLNGENAN": 4437, "PNAME": "Hoonah", "PSTATABB": "AK"}, "geometry": {"type": "Point", "coordinates": [-135.43074, 58.106432]}}, {"id": "56", "type": "Feature", "properties": {"LAT": 61.530858, "LON": -166.101944, "PLNGENAN": 3347, "PNAME": "Hooper Bay", "PSTATABB": "AK"}, "geometry": {"type": "Point", "coordinates": [-166.101944, 61.530858]}}, {"id": "57", "type": "Feature", "properties": {"LAT": 60.612822, "LON": -145.679411, "PLNGENAN": 3157.999, "PNAME": "Humpback Creek", "PSTATABB": "AK"}, "geometry": {"type": "Point", "coordinates": [-145.679411, 60.612822]}}, {"id": "58", "type": "Feature", "properties": {"LAT": 55.204937, "LON": -132.821435, "PLNGENAN": -26, "PNAME": "Hydaburg", "PSTATABB": "AK"}, "geometry": {"type": "Point", "coordinates": [-132.821435, 55.204937]}}, {"id": "59", "type": "Feature", "properties": {"LAT": 58.367635, "LON": -134.60802, "PLNGENAN": 318, "PNAME": "Industrial Plant", "PSTATABB": "AK"}, "geometry": {"type": "Point", "coordinates": [-134.60802, 58.367635]}}, {"id": "60", "type": "Feature", "properties": {"LAT": 61.168972, "LON": -149.911038, "PLNGENAN": 48, "PNAME": "International", "PSTATABB": "AK"}, "geometry": {"type": "Point", "coordinates": [-149.911038, 61.168972]}}, {"id": "61", "type": "Feature", "properties": {"LAT": 57.0497, "LON": -135.3128, "PLNGENAN": -665, "PNAME": "Jarvis Street", "PSTATABB": "AK"}, "geometry": {"type": "Point", "coordinates": [-135.3128, 57.0497]}}, {"id": "62", "type": "Feature", "properties": {"LAT": 61.286, "LON": -149.61, "PLNGENAN": 36898, "PNAME": "JBER Landfill Gas Power Plant", "PSTATABB": "AK"}, "geometry": {"type": "Point", "coordinates": [-149.61, 61.286]}}, {"id": "63", "type": "Feature", "properties": {"LAT": 56.962983, "LON": -133.922557, "PLNGENAN": 2139, "PNAME": "Kake", "PSTATABB": "AK"}, "geometry": {"type": "Point", "coordinates": [-133.922557, 56.962983]}}, {"id": "64", "type": "Feature", "properties": {"LAT": 59.4072, "LON": -135.3408, "PLNGENAN": 10741, "PNAME": "Kasidaya Creek Hydro", "PSTATABB": "AK"}, "geometry": {"type": "Point", "coordinates": [-135.3408, 59.4072]}}, {"id": "65", "type": "Feature", "properties": {"LAT": 60.8731, "LON": -162.5197, "PLNGENAN": 2879, "PNAME": "Kasigluk", "PSTATABB": "AK"}, "geometry": {"type": "Point", "coordinates": [-162.5197, 60.8731]}}, {"id": "66", "type": "Feature", "properties": {"LAT": 55.344641, "LON": -131.633425, "PLNGENAN": 19815, "PNAME": "Ketchikan", "PSTATABB": "AK"}, "geometry": {"type": "Point", "coordinates": [-131.633425, 55.344641]}}, {"id": "67", "type": "Feature", "properties": {"LAT": 66.973889, "LON": -160.428592, "PLNGENAN": 1620, "PNAME": "Kiana", "PSTATABB": "AK"}, "geometry": {"type": "Point", "coordinates": [-160.428592, 66.973889]}}, {"id": "68", "type": "Feature", "properties": {"LAT": 55.061683, "LON": -162.3103, "PLNGENAN": 4088, "PNAME": "King Cove", "PSTATABB": "AK"}, "geometry": {"type": "Point", "coordinates": [-162.3103, 55.061683]}}, {"id": "69", "type": "Feature", "properties": {"LAT": 67.726644, "LON": -164.538447, "PLNGENAN": 1634, "PNAME": "Kivalina", "PSTATABB": "AK"}, "geometry": {"type": "Point", "coordinates": [-164.538447, 67.726644]}}, {"id": "70", "type": "Feature", "properties": {"LAT": 55.557778, "LON": -132.981389, "PLNGENAN": "", "PNAME": "Klawock", "PSTATABB": "AK"}, "geometry": {"type": "Point", "coordinates": [-132.981389, 55.557778]}}, {"id": "71", "type": "Feature", "properties": {"LAT": 55.553197, "LON": -133.08535, "PLNGENAN": 1944, "PNAME": "Klawock Power Generation Station", "PSTATABB": "AK"}, "geometry": {"type": "Point", "coordinates": [-133.08535, 55.553197]}}, {"id": "72", "type": "Feature", "properties": {"LAT": 57.789956, "LON": -152.396982, "PLNGENAN": 0, "PNAME": "Kodiak Microgrid", "PSTATABB": "AK"}, "geometry": {"type": "Point", "coordinates": [-152.396982, 57.789956]}}, {"id": "73", "type": "Feature", "properties": {"LAT": 63.03215, "LON": -163.553106, "PLNGENAN": 1965, "PNAME": "Kotlik", "PSTATABB": "AK"}, "geometry": {"type": "Point", "coordinates": [-163.553106, 63.03215]}}, {"id": "74", "type": "Feature", "properties": {"LAT": 66.837778, "LON": -162.556944, "PLNGENAN": 22150.006, "PNAME": "Kotzebue Hybrid", "PSTATABB": "AK"}, "geometry": {"type": "Point", "coordinates": [-162.556944, 66.837778]}}, {"id": "75", "type": "Feature", "properties": {"LAT": 64.932089, "LON": -161.167103, "PLNGENAN": 1249, "PNAME": "Koyuk", "PSTATABB": "AK"}, "geometry": {"type": "Point", "coordinates": [-161.167103, 64.932089]}}, {"id": "76", "type": "Feature", "properties": {"LAT": 58.2325, "LON": -134.0533, "PLNGENAN": 67932, "PNAME": "Lake Dorothy Hydroelectric Project", "PSTATABB": "AK"}, "geometry": {"type": "Point", "coordinates": [-134.0533, 58.2325]}}, {"id": "77", "type": "Feature", "properties": {"LAT": 58.3536, "LON": -134.4953, "PLNGENAN": 1049.998, "PNAME": "Lemon Creek", "PSTATABB": "AK"}, "geometry": {"type": "Point", "coordinates": [-134.4953, 58.3536]}}, {"id": "78", "type": "Feature", "properties": {"LAT": 55.419444, "LON": -131.537778, "PLNGENAN": "", "PNAME": "Mahoney Lake Hydroelectric", "PSTATABB": "AK"}, "geometry": {"type": "Point", "coordinates": [-131.537778, 55.419444]}}, {"id": "79", "type": "Feature", "properties": {"LAT": 61.878186, "LON": -162.085147, "PLNGENAN": 1422, "PNAME": "Marshall", "PSTATABB": "AK"}, "geometry": {"type": "Point", "coordinates": [-162.085147, 61.878186]}}, {"id": "80", "type": "Feature", "properties": {"LAT": 62.95699, "LON": -155.594997, "PLNGENAN": 1556, "PNAME": "McGrath", "PSTATABB": "AK"}, "geometry": {"type": "Point", "coordinates": [-155.594997, 62.95699]}}, {"id": "81", "type": "Feature", "properties": {"LAT": 62.085569, "LON": -163.729072, "PLNGENAN": 2595, "PNAME": "Mountain Village", "PSTATABB": "AK"}, "geometry": {"type": "Point", "coordinates": [-163.729072, 62.085569]}}, {"id": "82", "type": "Feature", "properties": {"LAT": 58.730417, "LON": -157.007222, "PLNGENAN": 25378.001, "PNAME": "Naknek", "PSTATABB": "AK"}, "geometry": {"type": "Point", "coordinates": [-157.007222, 58.730417]}}, {"id": "83", "type": "Feature", "properties": {"LAT": 59.448358, "LON": -157.325528, "PLNGENAN": 1789.001, "PNAME": "New Stuyahok", "PSTATABB": "AK"}, "geometry": {"type": "Point", "coordinates": [-157.325528, 59.448358]}}, {"id": "84", "type": "Feature", "properties": {"LAT": 59.899054, "LON": -154.698735, "PLNGENAN": 3388.001, "PNAME": "Newhalen", "PSTATABB": "AK"}, "geometry": {"type": "Point", "coordinates": [-154.698735, 59.899054]}}, {"id": "85", "type": "Feature", "properties": {"LAT": 60.676539, "LON": -151.377713, "PLNGENAN": 239545, "PNAME": "Nikiski Combined Cycle", "PSTATABB": "AK"}, "geometry": {"type": "Point", "coordinates": [-151.377713, 60.676539]}}, {"id": "86", "type": "Feature", "properties": {"LAT": 67.570931, "LON": -162.965728, "PLNGENAN": 1813.001, "PNAME": "Noatak", "PSTATABB": "AK"}, "geometry": {"type": "Point", "coordinates": [-162.965728, 67.570931]}}, {"id": "87", "type": "Feature", "properties": {"LAT": 66.834519, "LON": -161.038717, "PLNGENAN": 1948, "PNAME": "Noorvik", "PSTATABB": "AK"}, "geometry": {"type": "Point", "coordinates": [-161.038717, 66.834519]}}, {"id": "88", "type": "Feature", "properties": {"LAT": 64.7356, "LON": -147.3481, "PLNGENAN": 431296, "PNAME": "North Pole", "PSTATABB": "AK"}, "geometry": {"type": "Point", "coordinates": [-147.3481, 64.7356]}}, {"id": "89", "type": "Feature", "properties": {"LAT": 62.9617, "LON": -141.9372, "PLNGENAN": 1027, "PNAME": "Northway", "PSTATABB": "AK"}, "geometry": {"type": "Point", "coordinates": [-141.9372, 62.9617]}}, {"id": "90", "type": "Feature", "properties": {"LAT": 68.13795, "LON": -151.741017, "PLNGENAN": 3813.001, "PNAME": "NSB Anaktuvuk Pass", "PSTATABB": "AK"}, "geometry": {"type": "Point", "coordinates": [-151.741017, 68.13795]}}, {"id": "91", "type": "Feature", "properties": {"LAT": 70.4826, "LON": -157.4252, "PLNGENAN": 2782.001, "PNAME": "NSB Atqasuk Utility", "PSTATABB": "AK"}, "geometry": {"type": "Point", "coordinates": [-157.4252, 70.4826]}}, {"id": "92", "type": "Feature", "properties": {"LAT": 70.125617, "LON": -143.619033, "PLNGENAN": 4510, "PNAME": "NSB Kaktovik Utility", "PSTATABB": "AK"}, "geometry": {"type": "Point", "coordinates": [-143.619033, 70.125617]}}, {"id": "93", "type": "Feature", "properties": {"LAT": 70.220565, "LON": -150.993492, "PLNGENAN": 6902.001, "PNAME": "NSB Nuiqsut Utility", "PSTATABB": "AK"}, "geometry": {"type": "Point", "coordinates": [-150.993492, 70.220565]}}, {"id": "94", "type": "Feature", "properties": {"LAT": 68.348424, "LON": -166.737211, "PLNGENAN": 6269, "PNAME": "NSB Point Hope Utility", "PSTATABB": "AK"}, "geometry": {"type": "Point", "coordinates": [-166.737211, 68.348424]}}, {"id": "95", "type": "Feature", "properties": {"LAT": 69.740833, "LON": -163.005833, "PLNGENAN": 3667, "PNAME": "NSB Point Lay Utility", "PSTATABB": "AK"}, "geometry": {"type": "Point", "coordinates": [-163.005833, 69.740833]}}, {"id": "96", "type": "Feature", "properties": {"LAT": 70.642877, "LON": -160.020461, "PLNGENAN": 6962.001, "PNAME": "NSB Wainwright Utility", "PSTATABB": "AK"}, "geometry": {"type": "Point", "coordinates": [-160.020461, 70.642877]}}, {"id": "97", "type": "Feature", "properties": {"LAT": 60.89588, "LON": -162.459756, "PLNGENAN": "", "PNAME": "Nunapitchuk", "PSTATABB": "AK"}, "geometry": {"type": "Point", "coordinates": [-162.459756, 60.89588]}}, {"id": "98", "type": "Feature", "properties": {"LAT": 57.731608, "LON": -152.507044, "PLNGENAN": 0, "PNAME": "Nymans Plant Microgrid", "PSTATABB": "AK"}, "geometry": {"type": "Point", "coordinates": [-152.507044, 57.731608]}}, {"id": "99", "type": "Feature", "properties": {"LAT": 60.555889, "LON": -145.752983, "PLNGENAN": 6137, "PNAME": "Orca", "PSTATABB": "AK"}, "geometry": {"type": "Point", "coordinates": [-145.752983, 60.555889]}}, {"id": "100", "type": "Feature", "properties": {"LAT": 57.957197, "LON": -136.220095, "PLNGENAN": 1055, "PNAME": "Pelican", "PSTATABB": "AK"}, "geometry": {"type": "Point", "coordinates": [-136.220095, 57.957197]}}, {"id": "101", "type": "Feature", "properties": {"LAT": 56.81104, "LON": -132.957091, "PLNGENAN": 12939.999, "PNAME": "Petersburg", "PSTATABB": "AK"}, "geometry": {"type": "Point", "coordinates": [-132.957091, 56.81104]}}, {"id": "102", "type": "Feature", "properties": {"LAT": 57.7869, "LON": -152.4406, "PLNGENAN": 25015, "PNAME": "Pillar Mountain Wind Project Microgrid", "PSTATABB": "AK"}, "geometry": {"type": "Point", "coordinates": [-152.4406, 57.7869]}}, {"id": "103", "type": "Feature", "properties": {"LAT": 61.936456, "LON": -162.880706, "PLNGENAN": 1751.001, "PNAME": "Pilot Station", "PSTATABB": "AK"}, "geometry": {"type": "Point", "coordinates": [-162.880706, 61.936456]}}, {"id": "104", "type": "Feature", "properties": {"LAT": 57.864775, "LON": -152.855441, "PLNGENAN": "", "PNAME": "Port Lions Microgrid", "PSTATABB": "AK"}, "geometry": {"type": "Point", "coordinates": [-152.855441, 57.864775]}}, {"id": "105", "type": "Feature", "properties": {"LAT": 60.588686, "LON": -145.604539, "PLNGENAN": 16620, "PNAME": "Power Creek", "PSTATABB": "AK"}, "geometry": {"type": "Point", "coordinates": [-145.604539, 60.588686]}}, {"id": "106", "type": "Feature", "properties": {"LAT": 55.091263, "LON": -131.544978, "PLNGENAN": 9111, "PNAME": "Purple Lake", "PSTATABB": "AK"}, "geometry": {"type": "Point", "coordinates": [-131.544978, 55.091263]}}, {"id": "107", "type": "Feature", "properties": {"LAT": 59.747436, "LON": -161.910647, "PLNGENAN": 2139, "PNAME": "Quinhagak", "PSTATABB": "AK"}, "geometry": {"type": "Point", "coordinates": [-161.910647, 59.747436]}}, {"id": "108", "type": "Feature", "properties": {"LAT": 55.357397, "LON": -131.69696, "PLNGENAN": 26855.001, "PNAME": "S W Bailey", "PSTATABB": "AK"}, "geometry": {"type": "Point", "coordinates": [-131.69696, 55.357397]}}, {"id": "109", "type": "Feature", "properties": {"LAT": 58.3269, "LON": -134.4631, "PLNGENAN": 23099, "PNAME": "Salmon Creek 1", "PSTATABB": "AK"}, "geometry": {"type": "Point", "coordinates": [-134.4631, 58.3269]}}, {"id": "110", "type": "Feature", "properties": {"LAT": 55.339722, "LON": -160.497222, "PLNGENAN": 3780, "PNAME": "Sand Point", "PSTATABB": "AK"}, "geometry": {"type": "Point", "coordinates": [-160.497222, 55.339722]}}, {"id": "111", "type": "Feature", "properties": {"LAT": 63.695267, "LON": -170.475661, "PLNGENAN": 2274, "PNAME": "Savoonga", "PSTATABB": "AK"}, "geometry": {"type": "Point", "coordinates": [-170.475661, 63.695267]}}, {"id": "112", "type": "Feature", "properties": {"LAT": 61.843036, "LON": -165.581497, "PLNGENAN": 1610.999, "PNAME": "Scammon Bay", "PSTATABB": "AK"}, "geometry": {"type": "Point", "coordinates": [-165.581497, 61.843036]}}, {"id": "113", "type": "Feature", "properties": {"LAT": 66.606778, "LON": -160.014808, "PLNGENAN": 2515.001, "PNAME": "Selawik", "PSTATABB": "AK"}, "geometry": {"type": "Point", "coordinates": [-160.014808, 66.606778]}}, {"id": "114", "type": "Feature", "properties": {"LAT": 59.439542, "LON": -151.713439, "PLNGENAN": 63, "PNAME": "Seldovia", "PSTATABB": "AK"}, "geometry": {"type": "Point", "coordinates": [-151.713439, 59.439542]}}, {"id": "115", "type": "Feature", "properties": {"LAT": 60.130922, "LON": -149.43501, "PLNGENAN": 218, "PNAME": "Seward (AK)", "PSTATABB": "AK"}, "geometry": {"type": "Point", "coordinates": [-149.43501, 60.130922]}}, {"id": "116", "type": "Feature", "properties": {"LAT": 66.255072, "LON": -166.073589, "PLNGENAN": 1663, "PNAME": "Shishmaref", "PSTATABB": "AK"}, "geometry": {"type": "Point", "coordinates": [-166.073589, 66.255072]}}, {"id": "117", "type": "Feature", "properties": {"LAT": 66.888114, "LON": -157.140206, "PLNGENAN": 1574, "PNAME": "Shungnak", "PSTATABB": "AK"}, "geometry": {"type": "Point", "coordinates": [-157.140206, 66.888114]}}, {"id": "118", "type": "Feature", "properties": {"LAT": 55.381402, "LON": -131.517758, "PLNGENAN": 8560, "PNAME": "Silvis", "PSTATABB": "AK"}, "geometry": {"type": "Point", "coordinates": [-131.517758, 55.381402]}}, {"id": "119", "type": "Feature", "properties": {"LAT": 59.4545, "LON": -135.3131, "PLNGENAN": 2558, "PNAME": "Skagway", "PSTATABB": "AK"}, "geometry": {"type": "Point", "coordinates": [-135.3131, 59.4545]}}, {"id": "120", "type": "Feature", "properties": {"LAT": 62.592756, "LON": -143.588869, "PLNGENAN": 1356, "PNAME": "Slana Generating Station", "PSTATABB": "AK"}, "geometry": {"type": "Point", "coordinates": [-143.588869, 62.592756]}}, {"id": "121", "type": "Feature", "properties": {"LAT": 64.505331, "LON": -165.429814, "PLNGENAN": 32649.001, "PNAME": "Snake River", "PSTATABB": "AK"}, "geometry": {"type": "Point", "coordinates": [-165.429814, 64.505331]}}, {"id": "122", "type": "Feature", "properties": {"LAT": 58.1415, "LON": -133.737, "PLNGENAN": 238707.999, "PNAME": "Snettisham", "PSTATABB": "AK"}, "geometry": {"type": "Point", "coordinates": [-133.737, 58.1415]}}, {"id": "123", "type": "Feature", "properties": {"LAT": 60.499444, "LON": -150.997222, "PLNGENAN": 46499, "PNAME": "Soldotna", "PSTATABB": "AK"}, "geometry": {"type": "Point", "coordinates": [-150.997222, 60.499444]}}, {"id": "124", "type": "Feature", "properties": {"LAT": 61.0828, "LON": -146.3033, "PLNGENAN": 53198, "PNAME": "Solomon Gulch", "PSTATABB": "AK"}, "geometry": {"type": "Point", "coordinates": [-146.3033, 61.0828]}}, {"id": "125", "type": "Feature", "properties": {"LAT": 55.563333, "LON": -132.891111, "PLNGENAN": 4473, "PNAME": "South Fork", "PSTATABB": "AK"}, "geometry": {"type": "Point", "coordinates": [-132.891111, 55.563333]}}, {"id": "126", "type": "Feature", "properties": {"LAT": 61.167417, "LON": -149.905304, "PLNGENAN": 797909, "PNAME": "Southcentral Power Project", "PSTATABB": "AK"}, "geometry": {"type": "Point", "coordinates": [-149.905304, 61.167417]}}, {"id": "127", "type": "Feature", "properties": {"LAT": 62.051525, "LON": -163.172567, "PLNGENAN": 2994, "PNAME": "St Marys IC", "PSTATABB": "AK"}, "geometry": {"type": "Point", "coordinates": [-163.172567, 62.051525]}}, {"id": "128", "type": "Feature", "properties": {"LAT": 63.4775, "LON": -162.0383, "PLNGENAN": "", "PNAME": "St. Michael", "PSTATABB": "AK"}, "geometry": {"type": "Point", "coordinates": [-162.0383, 63.4775]}}, {"id": "129", "type": "Feature", "properties": {"LAT": 63.521047, "LON": -162.286322, "PLNGENAN": 3399, "PNAME": "Stebbins", "PSTATABB": "AK"}, "geometry": {"type": "Point", "coordinates": [-162.286322, 63.521047]}}, {"id": "130", "type": "Feature", "properties": {"LAT": 57.77556, "LON": -152.48028, "PLNGENAN": 0, "PNAME": "Swampy Acres Microgrid", "PSTATABB": "AK"}, "geometry": {"type": "Point", "coordinates": [-152.48028, 57.77556]}}, {"id": "131", "type": "Feature", "properties": {"LAT": 55.615208, "LON": -131.356111, "PLNGENAN": 54365, "PNAME": "Swan Lake", "PSTATABB": "AK"}, "geometry": {"type": "Point", "coordinates": [-131.356111, 55.615208]}}, {"id": "132", "type": "Feature", "properties": {"LAT": 57.9449, "LON": -133.6867, "PLNGENAN": "", "PNAME": "Sweetheart Lake Hydroelectric Facility", "PSTATABB": "AK"}, "geometry": {"type": "Point", "coordinates": [-133.6867, 57.9449]}}, {"id": "133", "type": "Feature", "properties": {"LAT": 57.6861, "LON": -152.895, "PLNGENAN": 124761.999, "PNAME": "Terror Lake Microgrid", "PSTATABB": "AK"}, "geometry": {"type": "Point", "coordinates": [-152.895, 57.6861]}}, {"id": "134", "type": "Feature", "properties": {"LAT": 60.677, "LON": -151.3815, "PLNGENAN": 68210, "PNAME": "Tesoro Kenai Cogeneration Plant", "PSTATABB": "AK"}, "geometry": {"type": "Point", "coordinates": [-151.3815, 60.677]}}, {"id": "135", "type": "Feature", "properties": {"LAT": 55.68586, "LON": -132.52892, "PLNGENAN": -11, "PNAME": "Thorne Bay Plant", "PSTATABB": "AK"}, "geometry": {"type": "Point", "coordinates": [-132.52892, 55.68586]}}, {"id": "136", "type": "Feature", "properties": {"LAT": 70.235278, "LON": -148.383611, "PLNGENAN": 56413, "PNAME": "TNSG North Plant", "PSTATABB": "AK"}, "geometry": {"type": "Point", "coordinates": [-148.383611, 70.235278]}}, {"id": "137", "type": "Feature", "properties": {"LAT": 70.2, "LON": -148.466667, "PLNGENAN": -161.999, "PNAME": "TNSG South Plant", "PSTATABB": "AK"}, "geometry": {"type": "Point", "coordinates": [-148.466667, 70.2]}}, {"id": "138", "type": "Feature", "properties": {"LAT": 59.059744, "LON": -160.380278, "PLNGENAN": 2961, "PNAME": "Togiak", "PSTATABB": "AK"}, "geometry": {"type": "Point", "coordinates": [-160.380278, 59.059744]}}, {"id": "139", "type": "Feature", "properties": {"LAT": 63.33552, "LON": -142.99997, "PLNGENAN": 9156.999, "PNAME": "Tok", "PSTATABB": "AK"}, "geometry": {"type": "Point", "coordinates": [-142.99997, 63.33552]}}, {"id": "140", "type": "Feature", "properties": {"LAT": 60.530142, "LON": -165.108575, "PLNGENAN": 3555, "PNAME": "Toksook Bay", "PSTATABB": "AK"}, "geometry": {"type": "Point", "coordinates": [-165.108575, 60.530142]}}, {"id": "141", "type": "Feature", "properties": {"LAT": 56.216403, "LON": -131.504344, "PLNGENAN": 75977, "PNAME": "Tyee Lake Hydroelectric Facility", "PSTATABB": "AK"}, "geometry": {"type": "Point", "coordinates": [-131.504344, 56.216403]}}, {"id": "142", "type": "Feature", "properties": {"LAT": 63.876789, "LON": -160.790414, "PLNGENAN": 3166, "PNAME": "Unalakleet", "PSTATABB": "AK"}, "geometry": {"type": "Point", "coordinates": [-160.790414, 63.876789]}}, {"id": "143", "type": "Feature", "properties": {"LAT": 53.863993, "LON": -166.512591, "PLNGENAN": 1195, "PNAME": "Unalaska Power Module", "PSTATABB": "AK"}, "geometry": {"type": "Point", "coordinates": [-166.512591, 53.863993]}}, {"id": "144", "type": "Feature", "properties": {"LAT": 53.8796, "LON": -166.5532, "PLNGENAN": 30159.999, "PNAME": "Unisea G 2", "PSTATABB": "AK"}, "geometry": {"type": "Point", "coordinates": [-166.5532, 53.8796]}}, {"id": "145", "type": "Feature", "properties": {"LAT": 64.854171, "LON": -147.822075, "PLNGENAN": 28328, "PNAME": "University of Alaska Fairbanks", "PSTATABB": "AK"}, "geometry": {"type": "Point", "coordinates": [-147.822075, 64.854171]}}, {"id": "146", "type": "Feature", "properties": {"LAT": 61.526858, "LON": -160.348128, "PLNGENAN": 1497.001, "PNAME": "Upper Kalskag", "PSTATABB": "AK"}, "geometry": {"type": "Point", "coordinates": [-160.348128, 61.526858]}}, {"id": "147", "type": "Feature", "properties": {"LAT": 64.825601, "LON": -147.648627, "PLNGENAN": 71202, "PNAME": "Utility Plants Section", "PSTATABB": "AK"}, "geometry": {"type": "Point", "coordinates": [-147.648627, 64.825601]}}, {"id": "148", "type": "Feature", "properties": {"LAT": 61.1303, "LON": -146.3647, "PLNGENAN": 3103.999, "PNAME": "Valdez", "PSTATABB": "AK"}, "geometry": {"type": "Point", "coordinates": [-146.3647, 61.1303]}}, {"id": "149", "type": "Feature", "properties": {"LAT": 61.0839, "LON": -146.2529, "PLNGENAN": 17823, "PNAME": "Valdez Cogen", "PSTATABB": "AK"}, "geometry": {"type": "Point", "coordinates": [-146.2529, 61.0839]}}, {"id": "150", "type": "Feature", "properties": {"LAT": 55.540708, "LON": -133.102344, "PLNGENAN": 0, "PNAME": "Viking", "PSTATABB": "AK"}, "geometry": {"type": "Point", "coordinates": [-133.102344, 55.540708]}}, {"id": "151", "type": "Feature", "properties": {"LAT": 53.858508, "LON": -166.55288, "PLNGENAN": 17373, "PNAME": "Westward Seafoods", "PSTATABB": "AK"}, "geometry": {"type": "Point", "coordinates": [-166.55288, 53.858508]}}, {"id": "152", "type": "Feature", "properties": {"LAT": 55.328056, "LON": -131.530833, "PLNGENAN": 9908, "PNAME": "Whitman", "PSTATABB": "AK"}, "geometry": {"type": "Point", "coordinates": [-131.530833, 55.328056]}}, {"id": "153", "type": "Feature", "properties": {"LAT": 56.460976, "LON": -132.379439, "PLNGENAN": 612, "PNAME": "Wrangell", "PSTATABB": "AK"}, "geometry": {"type": "Point", "coordinates": [-132.379439, 56.460976]}}, {"id": "154", "type": "Feature", "properties": {"LAT": 59.544553, "LON": -139.724306, "PLNGENAN": 5764.999, "PNAME": "Yakutat", "PSTATABB": "AK"}, "geometry": {"type": "Point", "coordinates": [-139.724306, 59.544553]}}, {"id": "155", "type": "Feature", "properties": {"LAT": 33.582793, "LON": -86.779866, "PLNGENAN": 3031, "PNAME": "ABC Coke", "PSTATABB": "AL"}, "geometry": {"type": "Point", "coordinates": [-86.779866, 33.582793]}}, {"id": "156", "type": "Feature", "properties": {"LAT": 32.748611, "LON": -85.310833, "PLNGENAN": "", "PNAME": "AL Solar C LLC", "PSTATABB": "AL"}, "geometry": {"type": "Point", "coordinates": [-85.310833, 32.748611]}}, {"id": "157", "type": "Feature", "properties": {"LAT": 31.5825, "LON": -87.4889, "PLNGENAN": 434490.62, "PNAME": "Alabama Pine Pulp", "PSTATABB": "AL"}, "geometry": {"type": "Point", "coordinates": [-87.4889, 31.5825]}}, {"id": "158", "type": "Feature", "properties": {"LAT": 31.5825, "LON": -87.4889, "PLNGENAN": 254221.18, "PNAME": "Alabama River Pulp", "PSTATABB": "AL"}, "geometry": {"type": "Point", "coordinates": [-87.4889, 31.5825]}}, {"id": "159", "type": "Feature", "properties": {"LAT": 34.363389, "LON": -86.223889, "PLNGENAN": 0, "PNAME": "Albertville", "PSTATABB": "AL"}, "geometry": {"type": "Point", "coordinates": [-86.223889, 34.363389]}}, {"id": "160", "type": "Feature", "properties": {"LAT": 33.1661, "LON": -86.2825, "PLNGENAN": 53719, "PNAME": "AMEA Sylacauga Plant", "PSTATABB": "AL"}, "geometry": {"type": "Point", "coordinates": [-86.2825, 33.1661]}}, {"id": "161", "type": "Feature", "properties": {"LAT": 33.626728, "LON": -85.969481, "PLNGENAN": 8870, "PNAME": "ANAD Solar Array", "PSTATABB": "AL"}, "geometry": {"type": "Point", "coordinates": [-85.969481, 33.626728]}}, {"id": "165", "type": "Feature", "properties": {"LAT": 33.458665, "LON": -87.356823, "PLNGENAN": -284, "PNAME": "Bankhead Dam", "PSTATABB": "AL"}, "geometry": {"type": "Point", "coordinates": [-87.356823, 33.458665]}}, {"id": "166", "type": "Feature", "properties": {"LAT": 31.0069, "LON": -88.0103, "PLNGENAN": 12470807, "PNAME": "Barry", "PSTATABB": "AL"}, "geometry": {"type": "Point", "coordinates": [-88.0103, 31.0069]}}, {"id": "167", "type": "Feature", "properties": {"LAT": 32.661976, "LON": -85.091552, "PLNGENAN": 506152.002, "PNAME": "Bartletts Ferry", "PSTATABB": "AL"}, "geometry": {"type": "Point", "coordinates": [-85.091552, 32.661976]}}, {"id": "168", "type": "Feature", "properties": {"LAT": 34.7092, "LON": -85.9278, "PLNGENAN": "", "PNAME": "Bellefonte", "PSTATABB": "AL"}, "geometry": {"type": "Point", "coordinates": [-85.9278, 34.7092]}}, {"id": "169", "type": "Feature", "properties": {"LAT": 32.196971, "LON": -86.327341, "PLNGENAN": "", "PNAME": "Blackbear Solar 1", "PSTATABB": "AL"}, "geometry": {"type": "Point", "coordinates": [-86.327341, 32.196971]}}, {"id": "170", "type": "Feature", "properties": {"LAT": 34.7042, "LON": -87.1189, "PLNGENAN": 29519899.999, "PNAME": "Browns Ferry", "PSTATABB": "AL"}, "geometry": {"type": "Point", "coordinates": [-87.1189, 34.7042]}}, {"id": "171", "type": "Feature", "properties": {"LAT": 33.5883, "LON": -85.9731, "PLNGENAN": 334922, "PNAME": "Calhoun Energy Center", "PSTATABB": "AL"}, "geometry": {"type": "Point", "coordinates": [-85.9731, 33.5883]}}, {"id": "172", "type": "Feature", "properties": {"LAT": 32.6497, "LON": -86.74, "PLNGENAN": 4832746, "PNAME": "Central Alabama Gen Station", "PSTATABB": "AL"}, "geometry": {"type": "Point", "coordinates": [-86.74, 32.6497]}}, {"id": "173", "type": "Feature", "properties": {"LAT": 31.488019, "LON": -87.910747, "PLNGENAN": 955004, "PNAME": "Charles R Lowman", "PSTATABB": "AL"}, "geometry": {"type": "Point", "coordinates": [-87.910747, 31.488019]}}, {"id": "174", "type": "Feature", "properties": {"LAT": 34.7439, "LON": -87.8486, "PLNGENAN": 1670, "PNAME": "Colbert", "PSTATABB": "AL"}, "geometry": {"type": "Point", "coordinates": [-87.8486, 34.7439]}}, {"id": "175", "type": "Feature", "properties": {"LAT": 31.262356, "LON": -85.402737, "PLNGENAN": 978.998, "PNAME": "Crestwood Dothan", "PSTATABB": "AL"}, "geometry": {"type": "Point", "coordinates": [-85.402737, 31.262356]}}, {"id": "176", "type": "Feature", "properties": {"LAT": 34.94974, "LON": -86.868053, "PLNGENAN": 27084, "PNAME": "Cumblerland Land Holdings, LLC", "PSTATABB": "AL"}, "geometry": {"type": "Point", "coordinates": [-86.868053, 34.94974]}}, {"id": "177", "type": "Feature", "properties": {"LAT": 34.6292, "LON": -87.0214, "PLNGENAN": 2144807, "PNAME": "Decatur Energy Center", "PSTATABB": "AL"}, "geometry": {"type": "Point", "coordinates": [-87.0214, 34.6292]}}, {"id": "178", "type": "Feature", "properties": {"LAT": 34.623611, "LON": -87.101111, "PLNGENAN": 12563, "PNAME": "Decatur-Morgan Co LFG Recovery Project", "PSTATABB": "AL"}, "geometry": {"type": "Point", "coordinates": [-87.101111, 34.623611]}}, {"id": "179", "type": "Feature", "properties": {"LAT": 32.668889, "LON": -86.72, "PLNGENAN": "", "PNAME": "District 100 Transco Gas Pipe Line", "PSTATABB": "AL"}, "geometry": {"type": "Point", "coordinates": [-86.72, 32.668889]}}, {"id": "180", "type": "Feature", "properties": {"LAT": 32.381352, "LON": -86.574366, "PLNGENAN": 4404405, "PNAME": "E B Harris Generating Plant", "PSTATABB": "AL"}, "geometry": {"type": "Point", "coordinates": [-86.574366, 32.381352]}}, {"id": "181", "type": "Feature", "properties": {"LAT": 33.244211, "LON": -86.458056, "PLNGENAN": 5688930, "PNAME": "E C Gaston", "PSTATABB": "AL"}, "geometry": {"type": "Point", "coordinates": [-86.458056, 33.244211]}}, {"id": "182", "type": "Feature", "properties": {"LAT": 30.43203, "LON": -88.18241, "PLNGENAN": 72751, "PNAME": "ExxonMobil Mobile Bay Onshore", "PSTATABB": "AL"}, "geometry": {"type": "Point", "coordinates": [-88.18241, 30.43203]}}, {"id": "183", "type": "Feature", "properties": {"LAT": 31.331148, "LON": -85.73019, "PLNGENAN": 14223, "PNAME": "Fort Rucker Solar Array", "PSTATABB": "AL"}, "geometry": {"type": "Point", "coordinates": [-85.73019, 31.331148]}}, {"id": "184", "type": "Feature", "properties": {"LAT": 34.0128, "LON": -85.9708, "PLNGENAN": 169977, "PNAME": "Gadsden", "PSTATABB": "AL"}, "geometry": {"type": "Point", "coordinates": [-85.9708, 34.0128]}}, {"id": "185", "type": "Feature", "properties": {"LAT": 31.4033, "LON": -86.479469, "PLNGENAN": 3003, "PNAME": "Gantt", "PSTATABB": "AL"}, "geometry": {"type": "Point", "coordinates": [-86.479469, 31.4033]}}, {"id": "186", "type": "Feature", "properties": {"LAT": 31.077, "LON": -87.1116, "PLNGENAN": 472586.682, "PNAME": "Georgia-Pacific Brewton Mill", "PSTATABB": "AL"}, "geometry": {"type": "Point", "coordinates": [-87.1116, 31.077]}}, {"id": "187", "type": "Feature", "properties": {"LAT": 32.2268, "LON": -88.0252, "PLNGENAN": 337954, "PNAME": "Georgia-Pacific Consr Prods LP-Naheola", "PSTATABB": "AL"}, "geometry": {"type": "Point", "coordinates": [-88.0252, 32.2268]}}, {"id": "188", "type": "Feature", "properties": {"LAT": 32.60965, "LON": -85.0805, "PLNGENAN": 152488.002, "PNAME": "Goat Rock", "PSTATABB": "AL"}, "geometry": {"type": "Point", "coordinates": [-85.0805, 32.60965]}}, {"id": "189", "type": "Feature", "properties": {"LAT": 33.644344, "LON": -87.196486, "PLNGENAN": 490760, "PNAME": "Gorgas", "PSTATABB": "AL"}, "geometry": {"type": "Point", "coordinates": [-87.196486, 33.644344]}}, {"id": "190", "type": "Feature", "properties": {"LAT": 32.6017, "LON": -87.7811, "PLNGENAN": 1767889.004, "PNAME": "Greene County", "PSTATABB": "AL"}, "geometry": {"type": "Point", "coordinates": [-87.7811, 32.6017]}}, {"id": "191", "type": "Feature", "properties": {"LAT": 34.421272, "LON": -86.393931, "PLNGENAN": 667523, "PNAME": "Guntersville", "PSTATABB": "AL"}, "geometry": {"type": "Point", "coordinates": [-86.393931, 34.421272]}}, {"id": "192", "type": "Feature", "properties": {"LAT": 33.7845, "LON": -86.0524, "PLNGENAN": 251681.001, "PNAME": "H Neely Henry Dam", "PSTATABB": "AL"}, "geometry": {"type": "Point", "coordinates": [-86.0524, 33.7845]}}, {"id": "193", "type": "Feature", "properties": {"LAT": 33.258281, "LON": -85.616047, "PLNGENAN": 157954, "PNAME": "Harris Dam", "PSTATABB": "AL"}, "geometry": {"type": "Point", "coordinates": [-85.616047, 33.258281]}}, {"id": "194", "type": "Feature", "properties": {"LAT": 33.000669, "LON": -85.903278, "PLNGENAN": 5035173, "PNAME": "Hillabee Energy Center", "PSTATABB": "AL"}, "geometry": {"type": "Point", "coordinates": [-85.903278, 33.000669]}}, {"id": "195", "type": "Feature", "properties": {"LAT": 30.7478, "LON": -88.0575, "PLNGENAN": 1088349, "PNAME": "Hog Bayou Energy Center", "PSTATABB": "AL"}, "geometry": {"type": "Point", "coordinates": [-88.0575, 30.7478]}}, {"id": "196", "type": "Feature", "properties": {"LAT": 33.2553, "LON": -87.4495, "PLNGENAN": 169711, "PNAME": "Holt Dam", "PSTATABB": "AL"}, "geometry": {"type": "Point", "coordinates": [-87.4495, 33.2553]}}, {"id": "197", "type": "Feature", "properties": {"LAT": 31.9698, "LON": -87.4806, "PLNGENAN": 475439, "PNAME": "International Paper Pine Hill Mill", "PSTATABB": "AL"}, "geometry": {"type": "Point", "coordinates": [-87.4806, 31.9698]}}, {"id": "198", "type": "Feature", "properties": {"LAT": 32.4187, "LON": -86.4718, "PLNGENAN": 595846, "PNAME": "International Paper-Prattville Mill", "PSTATABB": "AL"}, "geometry": {"type": "Point", "coordinates": [-86.4718, 32.4187]}}, {"id": "199", "type": "Feature", "properties": {"LAT": 32.426016, "LON": -86.870912, "PLNGENAN": 601672, "PNAME": "International Paper-Riverdale Mill", "PSTATABB": "AL"}, "geometry": {"type": "Point", "coordinates": [-86.870912, 32.426016]}}, {"id": "200", "type": "Feature", "properties": {"LAT": 33.6319, "LON": -87.0597, "PLNGENAN": 18490948, "PNAME": "James H Miller Jr", "PSTATABB": "AL"}, "geometry": {"type": "Point", "coordinates": [-87.0597, 33.6319]}}, {"id": "201", "type": "Feature", "properties": {"LAT": 32.324242, "LON": -86.784319, "PLNGENAN": 253223, "PNAME": "Jones Bluff", "PSTATABB": "AL"}, "geometry": {"type": "Point", "coordinates": [-86.784319, 32.324242]}}, {"id": "202", "type": "Feature", "properties": {"LAT": 32.6189, "LON": -86.2548, "PLNGENAN": 399857, "PNAME": "Jordan Dam", "PSTATABB": "AL"}, "geometry": {"type": "Point", "coordinates": [-86.2548, 32.6189]}}, {"id": "203", "type": "Feature", "properties": {"LAT": 31.2231, "LON": -85.1116, "PLNGENAN": 14136962, "PNAME": "Joseph M Farley", "PSTATABB": "AL"}, "geometry": {"type": "Point", "coordinates": [-85.1116, 31.2231]}}, {"id": "204", "type": "Feature", "properties": {"LAT": 30.737741, "LON": -88.04977, "PLNGENAN": 257522, "PNAME": "Kimberly Clark Mobile - CHP Plant", "PSTATABB": "AL"}, "geometry": {"type": "Point", "coordinates": [-88.04977, 30.737741]}}, {"id": "205", "type": "Feature", "properties": {"LAT": 32.876313, "LON": -85.38821, "PLNGENAN": 167107, "PNAME": "LaFayette Solar Farm", "PSTATABB": "AL"}, "geometry": {"type": "Point", "coordinates": [-85.38821, 32.876313]}}, {"id": "206", "type": "Feature", "properties": {"LAT": 32.813836, "LON": -85.167786, "PLNGENAN": 0, "PNAME": "Langdale", "PSTATABB": "AL"}, "geometry": {"type": "Point", "coordinates": [-85.167786, 32.813836]}}, {"id": "207", "type": "Feature", "properties": {"LAT": 32.9633, "LON": -86.5187, "PLNGENAN": 667282.998, "PNAME": "Lay Dam", "PSTATABB": "AL"}, "geometry": {"type": "Point", "coordinates": [-86.5187, 32.9633]}}, {"id": "208", "type": "Feature", "properties": {"LAT": 33.9406, "LON": -87.1077, "PLNGENAN": 410236, "PNAME": "Lewis Smith Dam", "PSTATABB": "AL"}, "geometry": {"type": "Point", "coordinates": [-87.1077, 33.9406]}}, {"id": "209", "type": "Feature", "properties": {"LAT": 33.425878, "LON": -86.337547, "PLNGENAN": 446040, "PNAME": "Logan Martin Dam", "PSTATABB": "AL"}, "geometry": {"type": "Point", "coordinates": [-86.337547, 33.425878]}}, {"id": "210", "type": "Feature", "properties": {"LAT": 32.680394, "LON": -85.911442, "PLNGENAN": 411794.999, "PNAME": "Martin Dam", "PSTATABB": "AL"}, "geometry": {"type": "Point", "coordinates": [-85.911442, 32.680394]}}, {"id": "211", "type": "Feature", "properties": {"LAT": 31.2546, "LON": -88.0299, "PLNGENAN": 661232, "PNAME": "McIntosh (7063)", "PSTATABB": "AL"}, "geometry": {"type": "Point", "coordinates": [-88.0299, 31.2546]}}, {"id": "212", "type": "Feature", "properties": {"LAT": 31.400255, "LON": -86.476449, "PLNGENAN": 3560672, "PNAME": "McWilliams", "PSTATABB": "AL"}, "geometry": {"type": "Point", "coordinates": [-86.476449, 31.400255]}}, {"id": "213", "type": "Feature", "properties": {"LAT": 32.100881, "LON": -87.399767, "PLNGENAN": 292068, "PNAME": "Millers Ferry", "PSTATABB": "AL"}, "geometry": {"type": "Point", "coordinates": [-87.399767, 32.100881]}}, {"id": "214", "type": "Feature", "properties": {"LAT": 32.806025, "LON": -86.444892, "PLNGENAN": 539163, "PNAME": "Mitchell Dam", "PSTATABB": "AL"}, "geometry": {"type": "Point", "coordinates": [-86.444892, 32.806025]}}, {"id": "215", "type": "Feature", "properties": {"LAT": 30.736487, "LON": -88.051643, "PLNGENAN": 35796, "PNAME": "Mobile Energy Services LLC", "PSTATABB": "AL"}, "geometry": {"type": "Point", "coordinates": [-88.051643, 30.736487]}}, {"id": "216", "type": "Feature", "properties": {"LAT": 34.6397, "LON": -87.0639, "PLNGENAN": 3121340, "PNAME": "Morgan Energy Center", "PSTATABB": "AL"}, "geometry": {"type": "Point", "coordinates": [-87.0639, 34.6397]}}, {"id": "217", "type": "Feature", "properties": {"LAT": 34.76973, "LON": -87.90454, "PLNGENAN": "", "PNAME": "Muscle Shoals", "PSTATABB": "AL"}, "geometry": {"type": "Point", "coordinates": [-87.90454, 34.76973]}}, {"id": "218", "type": "Feature", "properties": {"LAT": 31.4894, "LON": -87.8989, "PLNGENAN": 123143.11, "PNAME": "Packaging Corporation of America Jackson Mill", "PSTATABB": "AL"}, "geometry": {"type": "Point", "coordinates": [-87.8989, 31.4894]}}, {"id": "219", "type": "Feature", "properties": {"LAT": 31.297, "LON": -85.536, "PLNGENAN": "", "PNAME": "Pinckard Solar", "PSTATABB": "AL"}, "geometry": {"type": "Point", "coordinates": [-85.536, 31.297]}}, {"id": "220", "type": "Feature", "properties": {"LAT": 32.6078, "LON": -85.0975, "PLNGENAN": 12462636, "PNAME": "Plant H. Allen Franklin", "PSTATABB": "AL"}, "geometry": {"type": "Point", "coordinates": [-85.0975, 32.6078]}}, {"id": "221", "type": "Feature", "properties": {"LAT": 31.361146, "LON": -86.518307, "PLNGENAN": 10702, "PNAME": "Point A", "PSTATABB": "AL"}, "geometry": {"type": "Point", "coordinates": [-86.518307, 31.361146]}}, {"id": "222", "type": "Feature", "properties": {"LAT": 34.610987, "LON": -86.611551, "PLNGENAN": 18111, "PNAME": "Redstone Arsenal Hybrid", "PSTATABB": "AL"}, "geometry": {"type": "Point", "coordinates": [-86.611551, 34.610987]}}, {"id": "223", "type": "Feature", "properties": {"LAT": 34.831511, "LON": -87.842204, "PLNGENAN": 149488, "PNAME": "River Bend Solar, LLC", "PSTATABB": "AL"}, "geometry": {"type": "Point", "coordinates": [-87.842204, 34.831511]}}, {"id": "224", "type": "Feature", "properties": {"LAT": 32.310226, "LON": -86.52542, "PLNGENAN": 407967, "PNAME": "SABIC Innovative Plastics - Burkville", "PSTATABB": "AL"}, "geometry": {"type": "Point", "coordinates": [-86.52542, 32.310226]}}, {"id": "225", "type": "Feature", "properties": {"LAT": 34.343875, "LON": -85.866103, "PLNGENAN": 27918.999, "PNAME": "Sand Valley Power Station", "PSTATABB": "AL"}, "geometry": {"type": "Point", "coordinates": [-85.866103, 34.343875]}}, {"id": "226", "type": "Feature", "properties": {"LAT": 33.568164, "LON": -86.79873, "PLNGENAN": 0, "PNAME": "Sloss Industries Corp", "PSTATABB": "AL"}, "geometry": {"type": "Point", "coordinates": [-86.79873, 33.568164]}}, {"id": "227", "type": "Feature", "properties": {"LAT": 32.6514, "LON": -86.7386, "PLNGENAN": 1723985, "PNAME": "Tenaska Lindsay Hill Generating Station", "PSTATABB": "AL"}, "geometry": {"type": "Point", "coordinates": [-86.7386, 32.6514]}}, {"id": "228", "type": "Feature", "properties": {"LAT": 30.525445, "LON": -88.128477, "PLNGENAN": 1551817, "PNAME": "Theodore Cogeneration", "PSTATABB": "AL"}, "geometry": {"type": "Point", "coordinates": [-88.128477, 30.525445]}}, {"id": "229", "type": "Feature", "properties": {"LAT": 32.535436, "LON": -85.887614, "PLNGENAN": 239763, "PNAME": "Thurlow Dam", "PSTATABB": "AL"}, "geometry": {"type": "Point", "coordinates": [-85.887614, 32.535436]}}, {"id": "230", "type": "Feature", "properties": {"LAT": 33.210892, "LON": -88.289611, "PLNGENAN": "", "PNAME": "Tom Bevill Lock and Dam Hydroelectric", "PSTATABB": "AL"}, "geometry": {"type": "Point", "coordinates": [-88.289611, 33.210892]}}, {"id": "231", "type": "Feature", "properties": {"LAT": 33.328107, "LON": -86.356825, "PLNGENAN": 154992, "PNAME": "U S Alliance Coosa Pines", "PSTATABB": "AL"}, "geometry": {"type": "Point", "coordinates": [-86.356825, 33.328107]}}, {"id": "232", "type": "Feature", "properties": {"LAT": 32.583889, "LON": -86.283056, "PLNGENAN": 723690, "PNAME": "Walter Bouldin Dam", "PSTATABB": "AL"}, "geometry": {"type": "Point", "coordinates": [-86.283056, 32.583889]}}, {"id": "233", "type": "Feature", "properties": {"LAT": 32.54098, "LON": -85.038879, "PLNGENAN": 8937, "PNAME": "Walton Discover Power Facility", "PSTATABB": "AL"}, "geometry": {"type": "Point", "coordinates": [-85.038879, 32.54098]}}, {"id": "234", "type": "Feature", "properties": {"LAT": 31.2504, "LON": -88.0156, "PLNGENAN": 823931, "PNAME": "Washington County Cogen (Olin)", "PSTATABB": "AL"}, "geometry": {"type": "Point", "coordinates": [-88.0156, 31.2504]}}, {"id": "235", "type": "Feature", "properties": {"LAT": 34.172142, "LON": -85.753806, "PLNGENAN": 272027.001, "PNAME": "Weiss Dam", "PSTATABB": "AL"}, "geometry": {"type": "Point", "coordinates": [-85.753806, 34.172142]}}, {"id": "236", "type": "Feature", "properties": {"LAT": 32.960714, "LON": -87.655419, "PLNGENAN": 30940, "PNAME": "Westervelt Moundville Cogen", "PSTATABB": "AL"}, "geometry": {"type": "Point", "coordinates": [-87.655419, 32.960714]}}, {"id": "237", "type": "Feature", "properties": {"LAT": 32.1761, "LON": -85.0272, "PLNGENAN": 774615, "PNAME": "WestRock Coated Board", "PSTATABB": "AL"}, "geometry": {"type": "Point", "coordinates": [-85.0272, 32.1761]}}, {"id": "238", "type": "Feature", "properties": {"LAT": 32.4541, "LON": -87.9759, "PLNGENAN": 296593.257, "PNAME": "WestRock Demopolis Mill", "PSTATABB": "AL"}, "geometry": {"type": "Point", "coordinates": [-87.9759, 32.4541]}}, {"id": "239", "type": "Feature", "properties": {"LAT": 34.8069, "LON": -87.3819, "PLNGENAN": 1630299.999, "PNAME": "Wheeler Dam", "PSTATABB": "AL"}, "geometry": {"type": "Point", "coordinates": [-87.3819, 34.8069]}}, {"id": "240", "type": "Feature", "properties": {"LAT": 34.883022, "LON": -85.755253, "PLNGENAN": "", "PNAME": "Widows Creek", "PSTATABB": "AL"}, "geometry": {"type": "Point", "coordinates": [-85.755253, 34.883022]}}, {"id": "241", "type": "Feature", "properties": {"LAT": 34.79782, "LON": -87.62537, "PLNGENAN": 3045105.004, "PNAME": "Wilson Dam", "PSTATABB": "AL"}, "geometry": {"type": "Point", "coordinates": [-87.62537, 34.79782]}}, {"id": "242", "type": "Feature", "properties": {"LAT": 32.5743, "LON": -85.8901, "PLNGENAN": 155736, "PNAME": "Yates Dam", "PSTATABB": "AL"}, "geometry": {"type": "Point", "coordinates": [-85.8901, 32.5743]}}, {"id": "243", "type": "Feature", "properties": {"LAT": 30.403538, "LON": -88.12833, "PLNGENAN": 16795, "PNAME": "Yellowhammer Gas Plant", "PSTATABB": "AL"}, "geometry": {"type": "Point", "coordinates": [-88.12833, 30.403538]}}, {"id": "244", "type": "Feature", "properties": {"LAT": 34.7, "LON": -92.199722, "PLNGENAN": "", "PNAME": "Archer Daniels Midland Little Rock", "PSTATABB": "AR"}, "geometry": {"type": "Point", "coordinates": [-92.199722, 34.7]}}, {"id": "245", "type": "Feature", "properties": {"LAT": 35.311, "LON": -93.2351, "PLNGENAN": 13574947, "PNAME": "Arkansas Nuclear One", "PSTATABB": "AR"}, "geometry": {"type": "Point", "coordinates": [-93.2351, 35.311]}}, {"id": "246", "type": "Feature", "properties": {"LAT": 33.6417, "LON": -94.1083, "PLNGENAN": 667162.34, "PNAME": "Ashdown", "PSTATABB": "AR"}, "geometry": {"type": "Point", "coordinates": [-94.1083, 33.6417]}}, {"id": "247", "type": "Feature", "properties": {"LAT": 36.421507, "LON": -93.847373, "PLNGENAN": 261746, "PNAME": "Beaver Dam", "PSTATABB": "AR"}, "geometry": {"type": "Point", "coordinates": [-93.847373, 36.421507]}}, {"id": "248", "type": "Feature", "properties": {"LAT": 34.570984, "LON": -93.194425, "PLNGENAN": 231668, "PNAME": "Blakely Mountain", "PSTATABB": "AR"}, "geometry": {"type": "Point", "coordinates": [-93.194425, 34.570984]}}, {"id": "249", "type": "Feature", "properties": {"LAT": 36.3635, "LON": -92.5763, "PLNGENAN": 1428481, "PNAME": "Bull Shoals", "PSTATABB": "AR"}, "geometry": {"type": "Point", "coordinates": [-92.5763, 36.3635]}}, {"id": "250", "type": "Feature", "properties": {"LAT": 35.260102, "LON": -91.363426, "PLNGENAN": 15894, "PNAME": "Carl Bailey", "PSTATABB": "AR"}, "geometry": {"type": "Point", "coordinates": [-91.363426, 35.260102]}}, {"id": "251", "type": "Feature", "properties": {"LAT": 34.4425, "LON": -93.0262, "PLNGENAN": 76107, "PNAME": "Carpenter", "PSTATABB": "AR"}, "geometry": {"type": "Point", "coordinates": [-93.0262, 34.4425]}}, {"id": "252", "type": "Feature", "properties": {"LAT": 34.7535, "LON": -92.1987, "PLNGENAN": "", "PNAME": "Cecil Lynch", "PSTATABB": "AR"}, "geometry": {"type": "Point", "coordinates": [-92.1987, 34.7535]}}, {"id": "253", "type": "Feature", "properties": {"LAT": 33.479, "LON": -91.349, "PLNGENAN": "", "PNAME": "Chicot Solar", "PSTATABB": "AR"}, "geometry": {"type": "Point", "coordinates": [-91.349, 33.479]}}, {"id": "254", "type": "Feature", "properties": {"LAT": 35.848561, "LON": -90.725377, "PLNGENAN": 27266.001, "PNAME": "City Water & Light - City of Jonesboro", "PSTATABB": "AR"}, "geometry": {"type": "Point", "coordinates": [-90.725377, 35.848561]}}, {"id": "255", "type": "Feature", "properties": {"LAT": 33.7061, "LON": -91.2371, "PLNGENAN": 114107, "PNAME": "Clearwater Paper APP CB", "PSTATABB": "AR"}, "geometry": {"type": "Point", "coordinates": [-91.2371, 33.7061]}}, {"id": "256", "type": "Feature", "properties": {"LAT": 36.060514, "LON": -91.919802, "PLNGENAN": 0, "PNAME": "Columbia Flooring Melbourne", "PSTATABB": "AR"}, "geometry": {"type": "Point", "coordinates": [-91.919802, 36.060514]}}, {"id": "257", "type": "Feature", "properties": {"LAT": 33.986501, "LON": -91.315788, "PLNGENAN": 311700, "PNAME": "Dam 2", "PSTATABB": "AR"}, "geometry": {"type": "Point", "coordinates": [-91.315788, 33.986501]}}, {"id": "258", "type": "Feature", "properties": {"LAT": 35.2503, "LON": -93.1686, "PLNGENAN": 594423, "PNAME": "Dardanelle", "PSTATABB": "AR"}, "geometry": {"type": "Point", "coordinates": [-93.1686, 35.2503]}}, {"id": "259", "type": "Feature", "properties": {"LAT": 34.211913, "LON": -93.110963, "PLNGENAN": 122691, "PNAME": "Degray", "PSTATABB": "AR"}, "geometry": {"type": "Point", "coordinates": [-93.110963, 34.211913]}}, {"id": "260", "type": "Feature", "properties": {"LAT": 35.8619, "LON": -90.0253, "PLNGENAN": 3229128, "PNAME": "Dell Power Plant", "PSTATABB": "AR"}, "geometry": {"type": "Point", "coordinates": [-90.0253, 35.8619]}}, {"id": "261", "type": "Feature", "properties": {"LAT": 35.9714, "LON": -94.0014, "PLNGENAN": 13824.999, "PNAME": "Elkins Generating Center", "PSTATABB": "AR"}, "geometry": {"type": "Point", "coordinates": [-94.0014, 35.9714]}}, {"id": "262", "type": "Feature", "properties": {"LAT": 35.351361, "LON": -94.294349, "PLNGENAN": 99455.001, "PNAME": "Ellis Hydro", "PSTATABB": "AR"}, "geometry": {"type": "Point", "coordinates": [-94.294349, 35.351361]}}, {"id": "263", "type": "Feature", "properties": {"LAT": 34.638429, "LON": -92.578347, "PLNGENAN": 1457, "PNAME": "FECC Solar Benton", "PSTATABB": "AR"}, "geometry": {"type": "Point", "coordinates": [-92.578347, 34.638429]}}, {"id": "264", "type": "Feature", "properties": {"LAT": 36.2561, "LON": -94.5241, "PLNGENAN": 2376855, "PNAME": "Flint Creek Power Plant", "PSTATABB": "AR"}, "geometry": {"type": "Point", "coordinates": [-94.5241, 36.2561]}}, {"id": "265", "type": "Feature", "properties": {"LAT": 34.6968, "LON": -92.165, "PLNGENAN": 5480, "PNAME": "Fourche Creek Wastewater", "PSTATABB": "AR"}, "geometry": {"type": "Point", "coordinates": [-92.165, 34.6968]}}, {"id": "266", "type": "Feature", "properties": {"LAT": 33.6094, "LON": -93.7924, "PLNGENAN": 118888, "PNAME": "Fulton", "PSTATABB": "AR"}, "geometry": {"type": "Point", "coordinates": [-93.7924, 33.6094]}}, {"id": "267", "type": "Feature", "properties": {"LAT": 36.186111, "LON": -94.284166, "PLNGENAN": "", "PNAME": "Genova Arkansas I LLC", "PSTATABB": "AR"}, "geometry": {"type": "Point", "coordinates": [-94.284166, 36.186111]}}, {"id": "268", "type": "Feature", "properties": {"LAT": 33.1421, "LON": -91.975, "PLNGENAN": 398237.38, "PNAME": "Georgia-Pacific Crossett LLC", "PSTATABB": "AR"}, "geometry": {"type": "Point", "coordinates": [-91.975, 33.1421]}}, {"id": "269", "type": "Feature", "properties": {"LAT": 35.5207, "LON": -91.9953, "PLNGENAN": 296621, "PNAME": "Greers Ferry Lake", "PSTATABB": "AR"}, "geometry": {"type": "Point", "coordinates": [-91.9953, 35.5207]}}, {"id": "270", "type": "Feature", "properties": {"LAT": 34.9806, "LON": -90.8722, "PLNGENAN": "", "PNAME": "Hamilton Moses", "PSTATABB": "AR"}, "geometry": {"type": "Point", "coordinates": [-90.8722, 34.9806]}}, {"id": "271", "type": "Feature", "properties": {"LAT": 35.167715, "LON": -91.660279, "PLNGENAN": "", "PNAME": "Happy Solar 1", "PSTATABB": "AR"}, "geometry": {"type": "Point", "coordinates": [-91.660279, 35.167715]}}, {"id": "272", "type": "Feature", "properties": {"LAT": 36.1855, "LON": -94.2841, "PLNGENAN": 155985, "PNAME": "Harry D. Mattison Power Plant", "PSTATABB": "AR"}, "geometry": {"type": "Point", "coordinates": [-94.2841, 36.1855]}}, {"id": "273", "type": "Feature", "properties": {"LAT": 33.3592, "LON": -93.4649, "PLNGENAN": "", "PNAME": "Harvey Couch", "PSTATABB": "AR"}, "geometry": {"type": "Point", "coordinates": [-93.4649, 33.3592]}}, {"id": "274", "type": "Feature", "properties": {"LAT": 34.29759, "LON": -92.868344, "PLNGENAN": 2937705, "PNAME": "Hot Spring Energy Facility", "PSTATABB": "AR"}, "geometry": {"type": "Point", "coordinates": [-92.868344, 34.29759]}}, {"id": "275", "type": "Feature", "properties": {"LAT": 35.678442, "LON": -91.408761, "PLNGENAN": 5655503, "PNAME": "Independence", "PSTATABB": "AR"}, "geometry": {"type": "Point", "coordinates": [-91.408761, 35.678442]}}, {"id": "276", "type": "Feature", "properties": {"LAT": 33.649722, "LON": -93.811944, "PLNGENAN": 4015020, "PNAME": "John W. Turk Jr. Power Plant", "PSTATABB": "AR"}, "geometry": {"type": "Point", "coordinates": [-93.811944, 33.649722]}}, {"id": "277", "type": "Feature", "properties": {"LAT": 34.4341, "LON": -92.9049, "PLNGENAN": 127495, "PNAME": "Lake Catherine", "PSTATABB": "AR"}, "geometry": {"type": "Point", "coordinates": [-92.9049, 34.4341]}}, {"id": "278", "type": "Feature", "properties": {"LAT": 35.484488, "LON": -94.392858, "PLNGENAN": 0, "PNAME": "Lee Creek Water Treatment Facility", "PSTATABB": "AR"}, "geometry": {"type": "Point", "coordinates": [-94.392858, 35.484488]}}, {"id": "279", "type": "Feature", "properties": {"LAT": 34.635997, "LON": -92.409602, "PLNGENAN": "", "PNAME": "Mabelvale", "PSTATABB": "AR"}, "geometry": {"type": "Point", "coordinates": [-92.409602, 34.635997]}}, {"id": "280", "type": "Feature", "properties": {"LAT": 34.4297, "LON": -92.8317, "PLNGENAN": 1705578, "PNAME": "Magnet Cove Generating Station", "PSTATABB": "AR"}, "geometry": {"type": "Point", "coordinates": [-92.8317, 34.4297]}}, {"id": "281", "type": "Feature", "properties": {"LAT": 33.5648, "LON": -92.7917, "PLNGENAN": 34073, "PNAME": "McClellan", "PSTATABB": "AR"}, "geometry": {"type": "Point", "coordinates": [-92.7917, 33.5648]}}, {"id": "282", "type": "Feature", "properties": {"LAT": 36.3858, "LON": -90.1867, "PLNGENAN": 9, "PNAME": "Municipal Light", "PSTATABB": "AR"}, "geometry": {"type": "Point", "coordinates": [-90.1867, 36.3858]}}, {"id": "283", "type": "Feature", "properties": {"LAT": 34.7956, "LON": -92.3569, "PLNGENAN": 89605, "PNAME": "Murray", "PSTATABB": "AR"}, "geometry": {"type": "Point", "coordinates": [-92.3569, 34.7956]}}, {"id": "284", "type": "Feature", "properties": {"LAT": 34.148427, "LON": -93.715168, "PLNGENAN": 71172.999, "PNAME": "Narrows (AR)", "PSTATABB": "AR"}, "geometry": {"type": "Point", "coordinates": [-93.715168, 34.148427]}}, {"id": "285", "type": "Feature", "properties": {"LAT": 36.082301, "LON": -94.067149, "PLNGENAN": 3055, "PNAME": "Noland Wastewater Treatment Plant Hybrid", "PSTATABB": "AR"}, "geometry": {"type": "Point", "coordinates": [-94.067149, 36.082301]}}, {"id": "286", "type": "Feature", "properties": {"LAT": 36.2491, "LON": -92.2401, "PLNGENAN": 287794, "PNAME": "Norfork", "PSTATABB": "AR"}, "geometry": {"type": "Point", "coordinates": [-92.2401, 36.2491]}}, {"id": "287", "type": "Feature", "properties": {"LAT": 35.705381, "LON": -89.9689, "PLNGENAN": 0, "PNAME": "Osceola (AR)", "PSTATABB": "AR"}, "geometry": {"type": "Point", "coordinates": [-89.9689, 35.705381]}}, {"id": "288", "type": "Feature", "properties": {"LAT": 34.5923, "LON": -92.2166, "PLNGENAN": 368940, "PNAME": "Oswald Generating Station", "PSTATABB": "AR"}, "geometry": {"type": "Point", "coordinates": [-92.2166, 34.5923]}}, {"id": "289", "type": "Feature", "properties": {"LAT": 35.4693, "LON": -93.8175, "PLNGENAN": 89547, "PNAME": "Ozark", "PSTATABB": "AR"}, "geometry": {"type": "Point", "coordinates": [-93.8175, 35.4693]}}, {"id": "290", "type": "Feature", "properties": {"LAT": 36.164296, "LON": -94.082269, "PLNGENAN": 1533, "PNAME": "Ozarks Natural Energy Community Solar", "PSTATABB": "AR"}, "geometry": {"type": "Point", "coordinates": [-94.082269, 36.164296]}}, {"id": "291", "type": "Feature", "properties": {"LAT": 36.060556, "LON": -90.521389, "PLNGENAN": "", "PNAME": "Paragould", "PSTATABB": "AR"}, "geometry": {"type": "Point", "coordinates": [-90.521389, 36.060556]}}, {"id": "292", "type": "Feature", "properties": {"LAT": 36.0242, "LON": -90.5094, "PLNGENAN": 473.001, "PNAME": "Paragould Reciprocating", "PSTATABB": "AR"}, "geometry": {"type": "Point", "coordinates": [-90.5094, 36.0242]}}, {"id": "293", "type": "Feature", "properties": {"LAT": 36.024272, "LON": -90.509229, "PLNGENAN": 84, "PNAME": "Paragould Turbine", "PSTATABB": "AR"}, "geometry": {"type": "Point", "coordinates": [-90.509229, 36.024272]}}, {"id": "294", "type": "Feature", "properties": {"LAT": 34.2181, "LON": -91.9025, "PLNGENAN": 1169258, "PNAME": "Pine Bluff Energy Center", "PSTATABB": "AR"}, "geometry": {"type": "Point", "coordinates": [-91.9025, 34.2181]}}, {"id": "295", "type": "Feature", "properties": {"LAT": 34.221213, "LON": -91.907365, "PLNGENAN": 412561, "PNAME": "Pine Bluff Mill", "PSTATABB": "AR"}, "geometry": {"type": "Point", "coordinates": [-91.907365, 34.221213]}}, {"id": "296", "type": "Feature", "properties": {"LAT": 35.6644, "LON": -89.9489, "PLNGENAN": 3944609, "PNAME": "Plum Point Energy Station", "PSTATABB": "AR"}, "geometry": {"type": "Point", "coordinates": [-89.9489, 35.6644]}}, {"id": "297", "type": "Feature", "properties": {"LAT": 34.4272, "LON": -92.8941, "PLNGENAN": 52620, "PNAME": "Remmel", "PSTATABB": "AR"}, "geometry": {"type": "Point", "coordinates": [-92.8941, 34.4272]}}, {"id": "298", "type": "Feature", "properties": {"LAT": 34.5136, "LON": -91.5331, "PLNGENAN": 22286, "PNAME": "Riceland Foods Cogeneration Plant", "PSTATABB": "AR"}, "geometry": {"type": "Point", "coordinates": [-91.5331, 34.5136]}}, {"id": "299", "type": "Feature", "properties": {"LAT": 34.4629, "LON": -90.5987, "PLNGENAN": "", "PNAME": "Robert E Ritchie", "PSTATABB": "AR"}, "geometry": {"type": "Point", "coordinates": [-90.5987, 34.4629]}}, {"id": "300", "type": "Feature", "properties": {"LAT": 35.46715, "LON": -93.51517, "PLNGENAN": 10161, "PNAME": "Scenic Hill Solar III", "PSTATABB": "AR"}, "geometry": {"type": "Point", "coordinates": [-93.51517, 35.46715]}}, {"id": "301", "type": "Feature", "properties": {"LAT": 35.47056, "LON": -93.4464, "PLNGENAN": 0, "PNAME": "Scenic Hill Solar IV, LLC", "PSTATABB": "AR"}, "geometry": {"type": "Point", "coordinates": [-93.4464, 35.47056]}}, {"id": "302", "type": "Feature", "properties": {"LAT": 35.233, "LON": -91.69, "PLNGENAN": "", "PNAME": "Searcy Solar Hybrid", "PSTATABB": "AR"}, "geometry": {"type": "Point", "coordinates": [-91.69, 35.233]}}, {"id": "303", "type": "Feature", "properties": {"LAT": 33.631538, "LON": -92.703611, "PLNGENAN": 26019, "PNAME": "SR Camden", "PSTATABB": "AR"}, "geometry": {"type": "Point", "coordinates": [-92.703611, 33.631538]}}, {"id": "304", "type": "Feature", "properties": {"LAT": 34.439722, "LON": -91.44, "PLNGENAN": 162317, "PNAME": "Stuttgart Solar", "PSTATABB": "AR"}, "geometry": {"type": "Point", "coordinates": [-91.44, 34.439722]}}, {"id": "305", "type": "Feature", "properties": {"LAT": 35.462382, "LON": -93.804926, "PLNGENAN": 254918, "PNAME": "Thomas Fitzhugh", "PSTATABB": "AR"}, "geometry": {"type": "Point", "coordinates": [-93.804926, 35.462382]}}, {"id": "306", "type": "Feature", "properties": {"LAT": 34.8332, "LON": -92.157103, "PLNGENAN": 31926, "PNAME": "Two Pine Landfill Gas Recovery", "PSTATABB": "AR"}, "geometry": {"type": "Point", "coordinates": [-92.157103, 34.8332]}}, {"id": "307", "type": "Feature", "properties": {"LAT": 36.066336, "LON": -94.172254, "PLNGENAN": 42074, "PNAME": "UA Central Utility Plant", "PSTATABB": "AR"}, "geometry": {"type": "Point", "coordinates": [-94.172254, 36.066336]}}, {"id": "308", "type": "Feature", "properties": {"LAT": 33.296146, "LON": -92.589364, "PLNGENAN": 11267495, "PNAME": "Union Power Station", "PSTATABB": "AR"}, "geometry": {"type": "Point", "coordinates": [-92.589364, 33.296146]}}, {"id": "309", "type": "Feature", "properties": {"LAT": 36.140849, "LON": -94.259713, "PLNGENAN": 33504, "PNAME": "Waste Management Eco Vista LFGTE", "PSTATABB": "AR"}, "geometry": {"type": "Point", "coordinates": [-94.259713, 36.140849]}}, {"id": "310", "type": "Feature", "properties": {"LAT": 36.04135, "LON": -94.140079, "PLNGENAN": 3159, "PNAME": "Westside Wastewater Treatment Plant Hybrid", "PSTATABB": "AR"}, "geometry": {"type": "Point", "coordinates": [-94.140079, 36.04135]}}, {"id": "311", "type": "Feature", "properties": {"LAT": 35.127591, "LON": -92.790273, "PLNGENAN": 122040, "PNAME": "Whillock", "PSTATABB": "AR"}, "geometry": {"type": "Point", "coordinates": [-92.790273, 35.127591]}}, {"id": "312", "type": "Feature", "properties": {"LAT": 34.4228, "LON": -92.1406, "PLNGENAN": 6743332, "PNAME": "White Bluff", "PSTATABB": "AR"}, "geometry": {"type": "Point", "coordinates": [-92.1406, 34.4228]}}, {"id": "313", "type": "Feature", "properties": {"LAT": 35.757401, "LON": -91.636887, "PLNGENAN": 15727, "PNAME": "White River Lock and Dam 1", "PSTATABB": "AR"}, "geometry": {"type": "Point", "coordinates": [-91.636887, 35.757401]}}, {"id": "314", "type": "Feature", "properties": {"LAT": 35.744036, "LON": -91.765418, "PLNGENAN": 15077, "PNAME": "White River Lock and Dam 2", "PSTATABB": "AR"}, "geometry": {"type": "Point", "coordinates": [-91.765418, 35.744036]}}, {"id": "315", "type": "Feature", "properties": {"LAT": 35.84361, "LON": -91.850521, "PLNGENAN": 18945, "PNAME": "White River Lock and Dam 3", "PSTATABB": "AR"}, "geometry": {"type": "Point", "coordinates": [-91.850521, 35.84361]}}, {"id": "316", "type": "Feature", "properties": {"LAT": 32.1825, "LON": -110.863333, "PLNGENAN": 3792, "PNAME": "Actus Lend Lease DMAFB", "PSTATABB": "AZ"}, "geometry": {"type": "Point", "coordinates": [-110.863333, 32.1825]}}, {"id": "317", "type": "Feature", "properties": {"LAT": 33.446804, "LON": -111.956261, "PLNGENAN": -1560, "PNAME": "AES ES GILBERT", "PSTATABB": "AZ"}, "geometry": {"type": "Point", "coordinates": [-111.956261, 33.446804]}}, {"id": "318", "type": "Feature", "properties": {"LAT": 32.9774, "LON": -113.4945, "PLNGENAN": 716167, "PNAME": "Agua Caliente Solar Project", "PSTATABB": "AZ"}, "geometry": {"type": "Point", "coordinates": [-113.4945, 32.9774]}}, {"id": "319", "type": "Feature", "properties": {"LAT": 33.5561, "LON": -112.2153, "PLNGENAN": 228022.001, "PNAME": "Agua Fria Generating Station", "PSTATABB": "AZ"}, "geometry": {"type": "Point", "coordinates": [-112.2153, 33.5561]}}, {"id": "320", "type": "Feature", "properties": {"LAT": 32.269, "LON": -110.975, "PLNGENAN": 2193, "PNAME": "Amphitheater High School Solar", "PSTATABB": "AZ"}, "geometry": {"type": "Point", "coordinates": [-110.975, 32.269]}}, {"id": "321", "type": "Feature", "properties": {"LAT": 32.068141, "LON": -109.890379, "PLNGENAN": 52017, "PNAME": "Apache Solar 1", "PSTATABB": "AZ"}, "geometry": {"type": "Point", "coordinates": [-109.890379, 32.068141]}}, {"id": "322", "type": "Feature", "properties": {"LAT": 32.0603, "LON": -109.8931, "PLNGENAN": 2002818, "PNAME": "Apache Station", "PSTATABB": "AZ"}, "geometry": {"type": "Point", "coordinates": [-109.8931, 32.0603]}}, {"id": "323", "type": "Feature", "properties": {"LAT": 32.5517, "LON": -111.3, "PLNGENAN": 118593, "PNAME": "APS Saguaro Power Plant", "PSTATABB": "AZ"}, "geometry": {"type": "Point", "coordinates": [-111.3, 32.5517]}}, {"id": "324", "type": "Feature", "properties": {"LAT": 33.4417, "LON": -112.1583, "PLNGENAN": 2970148, "PNAME": "APS West Phoenix Power Plant", "PSTATABB": "AZ"}, "geometry": {"type": "Point", "coordinates": [-112.1583, 33.4417]}}, {"id": "325", "type": "Feature", "properties": {"LAT": 33.417222, "LON": -111.928333, "PLNGENAN": 39186, "PNAME": "Arizona State University CHP", "PSTATABB": "AZ"}, "geometry": {"type": "Point", "coordinates": [-111.928333, 33.417222]}}, {"id": "326", "type": "Feature", "properties": {"LAT": 32.687778, "LON": -114.49611, "PLNGENAN": 8165.001, "PNAME": "Arizona Western College PV", "PSTATABB": "AZ"}, "geometry": {"type": "Point", "coordinates": [-114.49611, 32.687778]}}, {"id": "327", "type": "Feature", "properties": {"LAT": 33.3417, "LON": -112.8897, "PLNGENAN": 2928495, "PNAME": "Arlington Valley Energy Facility", "PSTATABB": "AZ"}, "geometry": {"type": "Point", "coordinates": [-112.8897, 33.3417]}}, {"id": "328", "type": "Feature", "properties": {"LAT": 33.321667, "LON": -112.880555, "PLNGENAN": "", "PNAME": "Arlington Valley Solar Energy I", "PSTATABB": "AZ"}, "geometry": {"type": "Point", "coordinates": [-112.880555, 33.321667]}}, {"id": "329", "type": "Feature", "properties": {"LAT": 33.305, "LON": -112.833888, "PLNGENAN": 348390.001, "PNAME": "Arlington Valley Solar Energy II", "PSTATABB": "AZ"}, "geometry": {"type": "Point", "coordinates": [-112.833888, 33.305]}}, {"id": "330", "type": "Feature", "properties": {"LAT": 32.108147, "LON": -110.824662, "PLNGENAN": "", "PNAME": "Arzon Solar UASTP Solar Power Station", "PSTATABB": "AZ"}, "geometry": {"type": "Point", "coordinates": [-110.824662, 32.108147]}}, {"id": "331", "type": "Feature", "properties": {"LAT": 33.94345, "LON": -113.79165, "PLNGENAN": "", "PNAME": "Atlas", "PSTATABB": "AZ"}, "geometry": {"type": "Point", "coordinates": [-113.79165, 33.94345]}}, {"id": "332", "type": "Feature", "properties": {"LAT": 32.001389, "LON": -110.960556, "PLNGENAN": 73955, "PNAME": "Avalon Solar", "PSTATABB": "AZ"}, "geometry": {"type": "Point", "coordinates": [-110.960556, 32.001389]}}, {"id": "333", "type": "Feature", "properties": {"LAT": 32.000854, "LON": -110.958427, "PLNGENAN": 42797, "PNAME": "Avalon Solar II", "PSTATABB": "AZ"}, "geometry": {"type": "Point", "coordinates": [-110.958427, 32.000854]}}, {"id": "334", "type": "Feature", "properties": {"LAT": 32.371667, "LON": -111.282777, "PLNGENAN": 68384, "PNAME": "Avra Valley Solar", "PSTATABB": "AZ"}, "geometry": {"type": "Point", "coordinates": [-111.282777, 32.371667]}}, {"id": "335", "type": "Feature", "properties": {"LAT": 33.424279, "LON": -111.92822, "PLNGENAN": 8071.002, "PNAME": "AZ State University - Tempe Campus Solar", "PSTATABB": "AZ"}, "geometry": {"type": "Point", "coordinates": [-111.92822, 33.424279]}}, {"id": "336", "type": "Feature", "properties": {"LAT": 33.498003, "LON": -112.813458, "PLNGENAN": 38976, "PNAME": "Badger 1", "PSTATABB": "AZ"}, "geometry": {"type": "Point", "coordinates": [-112.813458, 33.498003]}}, {"id": "337", "type": "Feature", "properties": {"LAT": 35.0361, "LON": -114.1594, "PLNGENAN": 98009, "PNAME": "Black Mountain Generating Station", "PSTATABB": "AZ"}, "geometry": {"type": "Point", "coordinates": [-114.1594, 35.0361]}}, {"id": "338", "type": "Feature", "properties": {"LAT": 35.0227, "LON": -114.1627, "PLNGENAN": 20828, "PNAME": "Black Mountain Solar LLC", "PSTATABB": "AZ"}, "geometry": {"type": "Point", "coordinates": [-114.1627, 35.0227]}}, {"id": "339", "type": "Feature", "properties": {"LAT": 33.053, "LON": -111.34, "PLNGENAN": 136141, "PNAME": "Bonnybrooke PV", "PSTATABB": "AZ"}, "geometry": {"type": "Point", "coordinates": [-111.34, 33.053]}}, {"id": "340", "type": "Feature", "properties": {"LAT": 33.230833, "LON": -112.626389, "PLNGENAN": "", "PNAME": "Buckeye Generation Center, LLC", "PSTATABB": "AZ"}, "geometry": {"type": "Point", "coordinates": [-112.626389, 33.230833]}}, {"id": "341", "type": "Feature", "properties": {"LAT": 33.419167, "LON": -112.576111, "PLNGENAN": 7211, "PNAME": "Buckeye Union HS District 201", "PSTATABB": "AZ"}, "geometry": {"type": "Point", "coordinates": [-112.576111, 33.419167]}}, {"id": "342", "type": "Feature", "properties": {"LAT": 32.374, "LON": -110.974, "PLNGENAN": 2912, "PNAME": "Canyon Del Oro High School Solar", "PSTATABB": "AZ"}, "geometry": {"type": "Point", "coordinates": [-110.974, 32.374]}}, {"id": "343", "type": "Feature", "properties": {"LAT": 34.351111, "LON": -111.700556, "PLNGENAN": "", "PNAME": "Childs", "PSTATABB": "AZ"}, "geometry": {"type": "Point", "coordinates": [-111.700556, 34.351111]}}, {"id": "344", "type": "Feature", "properties": {"LAT": 34.71843, "LON": -112.42899, "PLNGENAN": 44826, "PNAME": "Chino Solar Valley", "PSTATABB": "AZ"}, "geometry": {"type": "Point", "coordinates": [-112.42899, 34.71843]}}, {"id": "345", "type": "Feature", "properties": {"LAT": 34.9394, "LON": -110.3033, "PLNGENAN": 2782781, "PNAME": "Cholla", "PSTATABB": "AZ"}, "geometry": {"type": "Point", "coordinates": [-110.3033, 34.9394]}}, {"id": "346", "type": "Feature", "properties": {"LAT": 32.229922, "LON": -110.952797, "PLNGENAN": 55890.43, "PNAME": "Cogeneration 1", "PSTATABB": "AZ"}, "geometry": {"type": "Point", "coordinates": [-110.952797, 32.229922]}}, {"id": "347", "type": "Feature", "properties": {"LAT": 32.240833, "LON": -110.948333, "PLNGENAN": 41397.66, "PNAME": "Cogeneration 2", "PSTATABB": "AZ"}, "geometry": {"type": "Point", "coordinates": [-110.948333, 32.240833]}}, {"id": "348", "type": "Feature", "properties": {"LAT": 32.101944, "LON": -110.813333, "PLNGENAN": 2094, "PNAME": "Cogenra - TEP", "PSTATABB": "AZ"}, "geometry": {"type": "Point", "coordinates": [-110.813333, 32.101944]}}, {"id": "349", "type": "Feature", "properties": {"LAT": 34.11494, "LON": -109.37503, "PLNGENAN": "", "PNAME": "Concord Blue Eagar, LLC", "PSTATABB": "AZ"}, "geometry": {"type": "Point", "coordinates": [-109.37503, 34.11494]}}, {"id": "350", "type": "Feature", "properties": {"LAT": 32.917399, "LON": -111.503327, "PLNGENAN": 330192, "PNAME": "Coolidge Generating Station", "PSTATABB": "AZ"}, "geometry": {"type": "Point", "coordinates": [-111.503327, 32.917399]}}, {"id": "351", "type": "Feature", "properties": {"LAT": 33.15512, "LON": -111.483636, "PLNGENAN": "", "PNAME": "Copper Crossing Energy Center", "PSTATABB": "AZ"}, "geometry": {"type": "Point", "coordinates": [-111.483636, 33.15512]}}, {"id": "352", "type": "Feature", "properties": {"LAT": 34.5789, "LON": -109.2708, "PLNGENAN": 2074935, "PNAME": "Coronado Generating Station", "PSTATABB": "AZ"}, "geometry": {"type": "Point", "coordinates": [-109.2708, 34.5789]}}, {"id": "353", "type": "Feature", "properties": {"LAT": 33.034722, "LON": -112.661667, "PLNGENAN": 39075, "PNAME": "Cotton Center Solar Hybrid", "PSTATABB": "AZ"}, "geometry": {"type": "Point", "coordinates": [-112.661667, 33.034722]}}, {"id": "354", "type": "Feature", "properties": {"LAT": 33.439375, "LON": -111.946052, "PLNGENAN": "", "PNAME": "Crosscut", "PSTATABB": "AZ"}, "geometry": {"type": "Point", "coordinates": [-111.946052, 33.439375]}}, {"id": "355", "type": "Feature", "properties": {"LAT": 35.197044, "LON": -114.570669, "PLNGENAN": 1033569, "PNAME": "Davis Dam", "PSTATABB": "AZ"}, "geometry": {"type": "Point", "coordinates": [-114.570669, 35.197044]}}, {"id": "356", "type": "Feature", "properties": {"LAT": 32.17356, "LON": -110.899734, "PLNGENAN": 30156, "PNAME": "Davis Monthan AFB (AZ) West Airfield", "PSTATABB": "AZ"}, "geometry": {"type": "Point", "coordinates": [-110.899734, 32.17356]}}, {"id": "357", "type": "Feature", "properties": {"LAT": 32.252273, "LON": -110.992148, "PLNGENAN": 16300, "PNAME": "De Moss Petrie Generating Station", "PSTATABB": "AZ"}, "geometry": {"type": "Point", "coordinates": [-110.992148, 32.252273]}}, {"id": "358", "type": "Feature", "properties": {"LAT": 32.9042, "LON": -111.7889, "PLNGENAN": 2220079, "PNAME": "Desert Basin Generating Station", "PSTATABB": "AZ"}, "geometry": {"type": "Point", "coordinates": [-111.7889, 32.9042]}}, {"id": "359", "type": "Feature", "properties": {"LAT": 33.145, "LON": -112.66, "PLNGENAN": 31006, "PNAME": "Desert Star", "PSTATABB": "AZ"}, "geometry": {"type": "Point", "coordinates": [-112.66, 33.145]}}, {"id": "360", "type": "Feature", "properties": {"LAT": 33.145593, "LON": -112.659124, "PLNGENAN": 31006, "PNAME": "Desert Star Hybrid", "PSTATABB": "AZ"}, "geometry": {"type": "Point", "coordinates": [-112.659124, 33.145593]}}, {"id": "361", "type": "Feature", "properties": {"LAT": 35.61, "LON": -114.26, "PLNGENAN": "", "PNAME": "Dolan Springs", "PSTATABB": "AZ"}, "geometry": {"type": "Point", "coordinates": [-114.26, 35.61]}}, {"id": "362", "type": "Feature", "properties": {"LAT": 31.364122, "LON": -109.5538, "PLNGENAN": 59, "PNAME": "Douglas", "PSTATABB": "AZ"}, "geometry": {"type": "Point", "coordinates": [-109.5538, 31.364122]}}, {"id": "363", "type": "Feature", "properties": {"LAT": 34.513333, "LON": -110.078333, "PLNGENAN": "", "PNAME": "Dry Lake Solar", "PSTATABB": "AZ"}, "geometry": {"type": "Point", "coordinates": [-110.078333, 34.513333]}}, {"id": "364", "type": "Feature", "properties": {"LAT": 34.6596, "LON": -110.2842, "PLNGENAN": 118868, "PNAME": "Dry Lake Wind LLC", "PSTATABB": "AZ"}, "geometry": {"type": "Point", "coordinates": [-110.2842, 34.6596]}}, {"id": "365", "type": "Feature", "properties": {"LAT": 32.84703, "LON": -111.565072, "PLNGENAN": "", "PNAME": "East Line Solar", "PSTATABB": "AZ"}, "geometry": {"type": "Point", "coordinates": [-111.565072, 32.84703]}}, {"id": "366", "type": "Feature", "properties": {"LAT": 33.568, "LON": -112.305917, "PLNGENAN": "", "PNAME": "El Sol BESS", "PSTATABB": "AZ"}, "geometry": {"type": "Point", "coordinates": [-112.305917, 33.568]}}, {"id": "367", "type": "Feature", "properties": {"LAT": 33.409803, "LON": -112.340297, "PLNGENAN": 3722, "PNAME": "Estrella Mountain PV", "PSTATABB": "AZ"}, "geometry": {"type": "Point", "coordinates": [-112.340297, 33.409803]}}, {"id": "368", "type": "Feature", "properties": {"LAT": 33.935833, "LON": -113.555, "PLNGENAN": "", "PNAME": "FirstEnergy", "PSTATABB": "AZ"}, "geometry": {"type": "Point", "coordinates": [-113.555, 33.935833]}}, {"id": "369", "type": "Feature", "properties": {"LAT": 32.64856, "LON": -114.428741, "PLNGENAN": 95510, "PNAME": "Foothills Solar Plant Hybrid", "PSTATABB": "AZ"}, "geometry": {"type": "Point", "coordinates": [-114.428741, 32.64856]}}, {"id": "370", "type": "Feature", "properties": {"LAT": 31.555278, "LON": -110.35, "PLNGENAN": 37307, "PNAME": "Fort Huachuca Solar PV Project", "PSTATABB": "AZ"}, "geometry": {"type": "Point", "coordinates": [-110.35, 31.555278]}}, {"id": "371", "type": "Feature", "properties": {"LAT": 32.102778, "LON": -110.819722, "PLNGENAN": 8499, "PNAME": "Gato Montes Solar, LLC", "PSTATABB": "AZ"}, "geometry": {"type": "Point", "coordinates": [-110.819722, 32.102778]}}, {"id": "372", "type": "Feature", "properties": {"LAT": 32.940833, "LON": -112.881389, "PLNGENAN": 94765, "PNAME": "Gila Bend Hybrid", "PSTATABB": "AZ"}, "geometry": {"type": "Point", "coordinates": [-112.881389, 32.940833]}}, {"id": "373", "type": "Feature", "properties": {"LAT": 32.985977, "LON": -112.811009, "PLNGENAN": "", "PNAME": "Gila Bend Power Generation Station", "PSTATABB": "AZ"}, "geometry": {"type": "Point", "coordinates": [-112.811009, 32.985977]}}, {"id": "374", "type": "Feature", "properties": {"LAT": 32.975, "LON": -112.694444, "PLNGENAN": 2840032, "PNAME": "Gila River Power Block 2", "PSTATABB": "AZ"}, "geometry": {"type": "Point", "coordinates": [-112.694444, 32.975]}}, {"id": "375", "type": "Feature", "properties": {"LAT": 32.975, "LON": -112.6944, "PLNGENAN": 5761071, "PNAME": "Gila River Power Station", "PSTATABB": "AZ"}, "geometry": {"type": "Point", "coordinates": [-112.6944, 32.975]}}, {"id": "376", "type": "Feature", "properties": {"LAT": 33.355862, "LON": -111.802355, "PLNGENAN": 3541, "PNAME": "Gilbert Solar Facility I, LLC", "PSTATABB": "AZ"}, "geometry": {"type": "Point", "coordinates": [-111.802355, 33.355862]}}, {"id": "377", "type": "Feature", "properties": {"LAT": 36.936614, "LON": -111.483872, "PLNGENAN": 3892305.001, "PNAME": "Glen Canyon Dam", "PSTATABB": "AZ"}, "geometry": {"type": "Point", "coordinates": [-111.483872, 36.936614]}}, {"id": "378", "type": "Feature", "properties": {"LAT": 33.540324, "LON": -112.306361, "PLNGENAN": 9396, "PNAME": "Glendale Energy Power Plant", "PSTATABB": "AZ"}, "geometry": {"type": "Point", "coordinates": [-112.306361, 33.540324]}}, {"id": "379", "type": "Feature", "properties": {"LAT": 35.3635, "LON": -113.8978, "PLNGENAN": 139943, "PNAME": "Gray Hawk Solar", "PSTATABB": "AZ"}, "geometry": {"type": "Point", "coordinates": [-113.8978, 35.3635]}}, {"id": "380", "type": "Feature", "properties": {"LAT": 35.054029, "LON": -114.133272, "PLNGENAN": 2981217, "PNAME": "Griffith Energy Project", "PSTATABB": "AZ"}, "geometry": {"type": "Point", "coordinates": [-114.133272, 35.054029]}}, {"id": "381", "type": "Feature", "properties": {"LAT": 34.168264, "LON": -114.277356, "PLNGENAN": 72438, "PNAME": "Headgate Rock", "PSTATABB": "AZ"}, "geometry": {"type": "Point", "coordinates": [-114.277356, 34.168264]}}, {"id": "382", "type": "Feature", "properties": {"LAT": 36.01551, "LON": -114.738006, "PLNGENAN": 1156197.002, "PNAME": "Hoover Dam (AZ)", "PSTATABB": "AZ"}, "geometry": {"type": "Point", "coordinates": [-114.738006, 36.01551]}}, {"id": "383", "type": "Feature", "properties": {"LAT": 33.5907, "LON": -111.344, "PLNGENAN": 41053.999, "PNAME": "Horse Mesa", "PSTATABB": "AZ"}, "geometry": {"type": "Point", "coordinates": [-111.344, 33.5907]}}, {"id": "384", "type": "Feature", "properties": {"LAT": 33.027, "LON": -113.3489, "PLNGENAN": 36646, "PNAME": "Hyder II Hybrid", "PSTATABB": "AZ"}, "geometry": {"type": "Point", "coordinates": [-113.3489, 33.027]}}, {"id": "385", "type": "Feature", "properties": {"LAT": 33.02566, "LON": -113.34397, "PLNGENAN": 37173, "PNAME": "Hyder Solar Hybrid", "PSTATABB": "AZ"}, "geometry": {"type": "Point", "coordinates": [-113.34397, 33.02566]}}, {"id": "386", "type": "Feature", "properties": {"LAT": 33.243261, "LON": -111.892354, "PLNGENAN": 3804, "PNAME": "Intel - Ocotillo Campus Solar", "PSTATABB": "AZ"}, "geometry": {"type": "Point", "coordinates": [-111.892354, 33.243261]}}, {"id": "387", "type": "Feature", "properties": {"LAT": 36.9708, "LON": -112.5264, "PLNGENAN": 0, "PNAME": "IRC Generator Facility", "PSTATABB": "AZ"}, "geometry": {"type": "Point", "coordinates": [-112.5264, 36.9708]}}, {"id": "388", "type": "Feature", "properties": {"LAT": 32.098492, "LON": -110.819119, "PLNGENAN": 3017, "PNAME": "Iron Horse Battery Storage Hybrid", "PSTATABB": "AZ"}, "geometry": {"type": "Point", "coordinates": [-110.819119, 32.098492]}}, {"id": "389", "type": "Feature", "properties": {"LAT": 34.402222, "LON": -111.617222, "PLNGENAN": "", "PNAME": "Irving", "PSTATABB": "AZ"}, "geometry": {"type": "Point", "coordinates": [-111.617222, 34.402222]}}, {"id": "390", "type": "Feature", "properties": {"LAT": 32.16, "LON": -110.9047, "PLNGENAN": 1648044, "PNAME": "Irvington Generating Station", "PSTATABB": "AZ"}, "geometry": {"type": "Point", "coordinates": [-110.9047, 32.16]}}, {"id": "391", "type": "Feature", "properties": {"LAT": 35.304528, "LON": -114.01183, "PLNGENAN": 9460, "PNAME": "Jacobson 5 MW Solar", "PSTATABB": "AZ"}, "geometry": {"type": "Point", "coordinates": [-114.01183, 35.304528]}}, {"id": "392", "type": "Feature", "properties": {"LAT": 33.603056, "LON": -111.924722, "PLNGENAN": 2161, "PNAME": "Jewish Community Center PV", "PSTATABB": "AZ"}, "geometry": {"type": "Point", "coordinates": [-111.924722, 33.603056]}}, {"id": "393", "type": "Feature", "properties": {"LAT": 36.771944, "LON": -110.263889, "PLNGENAN": 78967, "PNAME": "Kayenta Solar Project", "PSTATABB": "AZ"}, "geometry": {"type": "Point", "coordinates": [-110.263889, 36.771944]}}, {"id": "394", "type": "Feature", "properties": {"LAT": 35.145833, "LON": -114.0675, "PLNGENAN": 28607, "PNAME": "Kingman 1", "PSTATABB": "AZ"}, "geometry": {"type": "Point", "coordinates": [-114.0675, 35.145833]}}, {"id": "395", "type": "Feature", "properties": {"LAT": 33.3556, "LON": -111.9353, "PLNGENAN": 1454644, "PNAME": "Kyrene Generating Station", "PSTATABB": "AZ"}, "geometry": {"type": "Point", "coordinates": [-111.9353, 33.3556]}}, {"id": "396", "type": "Feature", "properties": {"LAT": 33.917222, "LON": -114.2675, "PLNGENAN": "", "PNAME": "La Paz Solar Tower", "PSTATABB": "AZ"}, "geometry": {"type": "Point", "coordinates": [-114.2675, 33.917222]}}, {"id": "397", "type": "Feature", "properties": {"LAT": 35.241675, "LON": -114.004591, "PLNGENAN": 1981, "PNAME": "La Senita", "PSTATABB": "AZ"}, "geometry": {"type": "Point", "coordinates": [-114.004591, 35.241675]}}, {"id": "398", "type": "Feature", "properties": {"LAT": 33.820556, "LON": -112.24, "PLNGENAN": 14631, "PNAME": "Lake Pleasant WTP", "PSTATABB": "AZ"}, "geometry": {"type": "Point", "coordinates": [-112.24, 33.820556]}}, {"id": "399", "type": "Feature", "properties": {"LAT": 33.526111, "LON": -112.37944, "PLNGENAN": 30813, "PNAME": "Luke Solar", "PSTATABB": "AZ"}, "geometry": {"type": "Point", "coordinates": [-112.37944, 33.526111]}}, {"id": "400", "type": "Feature", "properties": {"LAT": 33.409063, "LON": -112.414596, "PLNGENAN": 4901, "PNAME": "Macys Goodyear", "PSTATABB": "AZ"}, "geometry": {"type": "Point", "coordinates": [-112.414596, 33.409063]}}, {"id": "401", "type": "Feature", "properties": {"LAT": 33.346944, "LON": -111.603056, "PLNGENAN": "", "PNAME": "Mesa Solar Array", "PSTATABB": "AZ"}, "geometry": {"type": "Point", "coordinates": [-111.603056, 33.346944]}}, {"id": "402", "type": "Feature", "properties": {"LAT": 33.345, "LON": -112.864167, "PLNGENAN": 6630659, "PNAME": "Mesquite Generating Station", "PSTATABB": "AZ"}, "geometry": {"type": "Point", "coordinates": [-112.864167, 33.345]}}, {"id": "403", "type": "Feature", "properties": {"LAT": 33.341833, "LON": -112.904028, "PLNGENAN": 407345.001, "PNAME": "Mesquite Solar 1", "PSTATABB": "AZ"}, "geometry": {"type": "Point", "coordinates": [-112.904028, 33.341833]}}, {"id": "404", "type": "Feature", "properties": {"LAT": 33.332777, "LON": -112.911388, "PLNGENAN": 256047, "PNAME": "Mesquite Solar 2, LLC", "PSTATABB": "AZ"}, "geometry": {"type": "Point", "coordinates": [-112.911388, 33.332777]}}, {"id": "405", "type": "Feature", "properties": {"LAT": 33.347583, "LON": -112.936805, "PLNGENAN": 445637, "PNAME": "Mesquite Solar 3, LLC", "PSTATABB": "AZ"}, "geometry": {"type": "Point", "coordinates": [-112.936805, 33.347583]}}, {"id": "406", "type": "Feature", "properties": {"LAT": 35.791142, "LON": -114.504504, "PLNGENAN": "", "PNAME": "Mohave County Wind Farm", "PSTATABB": "AZ"}, "geometry": {"type": "Point", "coordinates": [-114.504504, 35.791142]}}, {"id": "407", "type": "Feature", "properties": {"LAT": 34.9843, "LON": -114.5565, "PLNGENAN": 9649, "PNAME": "Mohave Electric at Fort Mohave", "PSTATABB": "AZ"}, "geometry": {"type": "Point", "coordinates": [-114.5565, 34.9843]}}, {"id": "408", "type": "Feature", "properties": {"LAT": 34.9843, "LON": -114.5565, "PLNGENAN": 29723, "PNAME": "Mohave Electric Cooperative at Joy Lane", "PSTATABB": "AZ"}, "geometry": {"type": "Point", "coordinates": [-114.5565, 34.9843]}}, {"id": "409", "type": "Feature", "properties": {"LAT": 33.5536, "LON": -111.4431, "PLNGENAN": 25370, "PNAME": "Mormon Flat", "PSTATABB": "AZ"}, "geometry": {"type": "Point", "coordinates": [-111.4431, 33.5536]}}, {"id": "410", "type": "Feature", "properties": {"LAT": 36.9047, "LON": -111.3886, "PLNGENAN": 9949554, "PNAME": "Navajo Generating Station", "PSTATABB": "AZ"}, "geometry": {"type": "Point", "coordinates": [-111.3886, 36.9047]}}, {"id": "411", "type": "Feature", "properties": {"LAT": 33.47596, "LON": -113.113434, "PLNGENAN": 0, "PNAME": "New Harquahala Generating Company, LLC", "PSTATABB": "AZ"}, "geometry": {"type": "Point", "coordinates": [-113.113434, 33.47596]}}, {"id": "412", "type": "Feature", "properties": {"LAT": 32.401, "LON": -111.1262, "PLNGENAN": 12476.001, "PNAME": "North Loop", "PSTATABB": "AZ"}, "geometry": {"type": "Point", "coordinates": [-111.1262, 32.401]}}, {"id": "413", "type": "Feature", "properties": {"LAT": 33.681944, "LON": -112.476666, "PLNGENAN": 21270, "PNAME": "Northwest Regional", "PSTATABB": "AZ"}, "geometry": {"type": "Point", "coordinates": [-112.476666, 33.681944]}}, {"id": "414", "type": "Feature", "properties": {"LAT": 34.503158, "LON": -110.334953, "PLNGENAN": 200151, "PNAME": "Novo BioPower Plant", "PSTATABB": "AZ"}, "geometry": {"type": "Point", "coordinates": [-110.334953, 34.503158]}}, {"id": "415", "type": "Feature", "properties": {"LAT": 33.4225, "LON": -111.9122, "PLNGENAN": 618669, "PNAME": "Ocotillo Power Plant", "PSTATABB": "AZ"}, "geometry": {"type": "Point", "coordinates": [-111.9122, 33.4225]}}, {"id": "416", "type": "Feature", "properties": {"LAT": 33.776667, "LON": -113.656111, "PLNGENAN": 735, "PNAME": "OE_AZ1", "PSTATABB": "AZ"}, "geometry": {"type": "Point", "coordinates": [-113.656111, 33.776667]}}, {"id": "417", "type": "Feature", "properties": {"LAT": 33.3881, "LON": -112.8617, "PLNGENAN": 31920368.001, "PNAME": "Palo Verde", "PSTATABB": "AZ"}, "geometry": {"type": "Point", "coordinates": [-112.8617, 33.3881]}}, {"id": "418", "type": "Feature", "properties": {"LAT": 33.021111, "LON": -112.661389, "PLNGENAN": 38476, "PNAME": "Paloma Solar Hybrid", "PSTATABB": "AZ"}, "geometry": {"type": "Point", "coordinates": [-112.661389, 33.021111]}}, {"id": "419", "type": "Feature", "properties": {"LAT": 33.6416, "LON": -111.9997, "PLNGENAN": 2598, "PNAME": "Paradise Valley H.S. PV", "PSTATABB": "AZ"}, "geometry": {"type": "Point", "coordinates": [-111.9997, 33.6416]}}, {"id": "420", "type": "Feature", "properties": {"LAT": 35.415556, "LON": -112.271111, "PLNGENAN": 220756, "PNAME": "Perrin Ranch Wind LLC", "PSTATABB": "AZ"}, "geometry": {"type": "Point", "coordinates": [-112.271111, 35.415556]}}, {"id": "421", "type": "Feature", "properties": {"LAT": 33.4345, "LON": -111.9842, "PLNGENAN": 1953, "PNAME": "Phoenix Airport East Economy Lot", "PSTATABB": "AZ"}, "geometry": {"type": "Point", "coordinates": [-111.9842, 33.4345]}}, {"id": "422", "type": "Feature", "properties": {"LAT": 33.43042, "LON": -112.04484, "PLNGENAN": 5805, "PNAME": "Phoenix Airport Rental Car Center", "PSTATABB": "AZ"}, "geometry": {"type": "Point", "coordinates": [-112.04484, 33.43042]}}, {"id": "423", "type": "Feature", "properties": {"LAT": 32.369722, "LON": -111.242778, "PLNGENAN": 51506, "PNAME": "Picture Rocks Solar, LLC", "PSTATABB": "AZ"}, "geometry": {"type": "Point", "coordinates": [-111.242778, 32.369722]}}, {"id": "424", "type": "Feature", "properties": {"LAT": 32.166494, "LON": -110.816669, "PLNGENAN": 1702, "PNAME": "Pima Community College", "PSTATABB": "AZ"}, "geometry": {"type": "Point", "coordinates": [-110.816669, 32.166494]}}, {"id": "425", "type": "Feature", "properties": {"LAT": 32.146142, "LON": -110.990639, "PLNGENAN": 2952, "PNAME": "Pima Community College - East Campus", "PSTATABB": "AZ"}, "geometry": {"type": "Point", "coordinates": [-110.990639, 32.146142]}}, {"id": "426", "type": "Feature", "properties": {"LAT": 32.343491, "LON": -111.02786, "PLNGENAN": 2184, "PNAME": "Pima Community College NW", "PSTATABB": "AZ"}, "geometry": {"type": "Point", "coordinates": [-111.02786, 32.343491]}}, {"id": "427", "type": "Feature", "properties": {"LAT": 32.251647, "LON": -110.991333, "PLNGENAN": -367, "PNAME": "Pima Energy Storage System", "PSTATABB": "AZ"}, "geometry": {"type": "Point", "coordinates": [-110.991333, 32.251647]}}, {"id": "428", "type": "Feature", "properties": {"LAT": 32.875697, "LON": -111.551111, "PLNGENAN": 59895, "PNAME": "Pinal Central Energy Center Hybrid", "PSTATABB": "AZ"}, "geometry": {"type": "Point", "coordinates": [-111.551111, 32.875697]}}, {"id": "429", "type": "Feature", "properties": {"LAT": 33.160601, "LON": -111.484011, "PLNGENAN": 51447, "PNAME": "Poseidon Solar, LLC", "PSTATABB": "AZ"}, "geometry": {"type": "Point", "coordinates": [-111.484011, 33.160601]}}, {"id": "430", "type": "Feature", "properties": {"LAT": 34.6062, "LON": -110.1734, "PLNGENAN": 122910, "PNAME": "Poseidon Wind, LLC", "PSTATABB": "AZ"}, "geometry": {"type": "Point", "coordinates": [-110.1734, 34.6062]}}, {"id": "431", "type": "Feature", "properties": {"LAT": 32.116389, "LON": -110.82, "PLNGENAN": 7064, "PNAME": "Prairie Fire", "PSTATABB": "AZ"}, "geometry": {"type": "Point", "coordinates": [-110.82, 32.116389]}}, {"id": "432", "type": "Feature", "properties": {"LAT": 34.6584, "LON": -112.4008, "PLNGENAN": 5210, "PNAME": "Prescott Airport", "PSTATABB": "AZ"}, "geometry": {"type": "Point", "coordinates": [-112.4008, 34.6584]}}, {"id": "433", "type": "Feature", "properties": {"LAT": 34.649444, "LON": -112.4275, "PLNGENAN": 23469, "PNAME": "Prescott Solar Plant", "PSTATABB": "AZ"}, "geometry": {"type": "Point", "coordinates": [-112.4275, 34.649444]}}, {"id": "434", "type": "Feature", "properties": {"LAT": 33.87581, "LON": -111.31356, "PLNGENAN": 0, "PNAME": "Punkin Center Battery Storage", "PSTATABB": "AZ"}, "geometry": {"type": "Point", "coordinates": [-111.31356, 33.87581]}}, {"id": "435", "type": "Feature", "properties": {"LAT": 33.2675, "LON": -111.612222, "PLNGENAN": 47619, "PNAME": "Queen Creek Solar Farm", "PSTATABB": "AZ"}, "geometry": {"type": "Point", "coordinates": [-111.612222, 33.2675]}}, {"id": "436", "type": "Feature", "properties": {"LAT": 32.367013, "LON": -112.831401, "PLNGENAN": 8492, "PNAME": "RE Ajo 1 LLC", "PSTATABB": "AZ"}, "geometry": {"type": "Point", "coordinates": [-112.831401, 32.367013]}}, {"id": "437", "type": "Feature", "properties": {"LAT": 34.585833, "LON": -113.177222, "PLNGENAN": 32686, "PNAME": "RE Bagdad Solar I LLC", "PSTATABB": "AZ"}, "geometry": {"type": "Point", "coordinates": [-113.177222, 34.585833]}}, {"id": "438", "type": "Feature", "properties": {"LAT": 33.026389, "LON": -112.665833, "PLNGENAN": 43250, "PNAME": "RE Gillespie 1 LLC", "PSTATABB": "AZ"}, "geometry": {"type": "Point", "coordinates": [-112.665833, 33.026389]}}, {"id": "439", "type": "Feature", "properties": {"LAT": 32.286111, "LON": -110.088056, "PLNGENAN": 213103, "PNAME": "Red Horse 2", "PSTATABB": "AZ"}, "geometry": {"type": "Point", "coordinates": [-110.088056, 32.286111]}}, {"id": "440", "type": "Feature", "properties": {"LAT": 32.13597, "LON": -110.05129, "PLNGENAN": 75653, "PNAME": "Red Horse III", "PSTATABB": "AZ"}, "geometry": {"type": "Point", "coordinates": [-110.05129, 32.13597]}}, {"id": "441", "type": "Feature", "properties": {"LAT": 32.551026, "LON": -111.289232, "PLNGENAN": 116169, "PNAME": "Red Rock", "PSTATABB": "AZ"}, "geometry": {"type": "Point", "coordinates": [-111.289232, 32.551026]}}, {"id": "442", "type": "Feature", "properties": {"LAT": 33.334562, "LON": -112.840641, "PLNGENAN": 4650226, "PNAME": "Redhawk Generating Facility", "PSTATABB": "AZ"}, "geometry": {"type": "Point", "coordinates": [-112.840641, 33.334562]}}, {"id": "443", "type": "Feature", "properties": {"LAT": 31.5, "LON": -111.008056, "PLNGENAN": 11273, "PNAME": "Rio Rico Solar", "PSTATABB": "AZ"}, "geometry": {"type": "Point", "coordinates": [-111.008056, 31.5]}}, {"id": "444", "type": "Feature", "properties": {"LAT": 32.2894, "LON": -111.0331, "PLNGENAN": 1025, "PNAME": "Roger Road WWTP", "PSTATABB": "AZ"}, "geometry": {"type": "Point", "coordinates": [-111.0331, 32.2894]}}, {"id": "445", "type": "Feature", "properties": {"LAT": 33.671104, "LON": -111.161786, "PLNGENAN": 45372, "PNAME": "Roosevelt", "PSTATABB": "AZ"}, "geometry": {"type": "Point", "coordinates": [-111.161786, 33.671104]}}, {"id": "446", "type": "Feature", "properties": {"LAT": 33.378333, "LON": -113.180833, "PLNGENAN": 35179, "PNAME": "Saddle Mountain Solar I", "PSTATABB": "AZ"}, "geometry": {"type": "Point", "coordinates": [-113.180833, 33.378333]}}, {"id": "447", "type": "Feature", "properties": {"LAT": 32.866276, "LON": -111.502402, "PLNGENAN": "", "PNAME": "Saint Solar", "PSTATABB": "AZ"}, "geometry": {"type": "Point", "coordinates": [-111.502402, 32.866276]}}, {"id": "448", "type": "Feature", "properties": {"LAT": 33.035556, "LON": -111.430278, "PLNGENAN": 120772, "PNAME": "Sandstone Solar", "PSTATABB": "AZ"}, "geometry": {"type": "Point", "coordinates": [-111.430278, 33.035556]}}, {"id": "449", "type": "Feature", "properties": {"LAT": 33.3325, "LON": -111.7503, "PLNGENAN": 6113623, "PNAME": "Santan", "PSTATABB": "AZ"}, "geometry": {"type": "Point", "coordinates": [-111.7503, 33.3325]}}, {"id": "450", "type": "Feature", "properties": {"LAT": 32.922294, "LON": -112.95594, "PLNGENAN": 791642, "PNAME": "Solana Generating Station", "PSTATABB": "AZ"}, "geometry": {"type": "Point", "coordinates": [-112.95594, 32.922294]}},